[
  {
    "id": 8583549,
    "parentId": 3514780,
    "country": "MX",
    "name": "Acajete",
    "fullName": null,
    "lat": 19.56815,
    "lng": -97.03333,
    "tz": "America/Mexico_City"
  },
  {
    "id": 8583550,
    "parentId": 3514780,
    "country": "MX",
    "name": "Acatlán",
    "fullName": null,
    "lat": 19.69648,
    "lng": -96.84367,
    "tz": "America/Mexico_City"
  },
  {
    "id": 8583551,
    "parentId": 3514780,
    "country": "MX",
    "name": "Acayucan",
    "fullName": null,
    "lat": 18.02197,
    "lng": -95.00355,
    "tz": "America/Mexico_City"
  },
  {
    "id": 8583552,
    "parentId": 3514780,
    "country": "MX",
    "name": "Actopan",
    "fullName": null,
    "lat": 19.53208,
    "lng": -96.51447,
    "tz": "America/Mexico_City"
  },
  {
    "id": 8583553,
    "parentId": 3514780,
    "country": "MX",
    "name": "Acula",
    "fullName": null,
    "lat": 18.52953,
    "lng": -95.78776,
    "tz": "America/Mexico_City"
  },
  {
    "id": 8583554,
    "parentId": 3514780,
    "country": "MX",
    "name": "Acultzingo",
    "fullName": null,
    "lat": 18.72332,
    "lng": -97.27708,
    "tz": "America/Mexico_City"
  },
  {
    "id": 8583850,
    "parentId": 3514780,
    "country": "MX",
    "name": "Agua Dulce",
    "fullName": null,
    "lat": 18.08945,
    "lng": -94.16563,
    "tz": "America/Mexico_City"
  },
  {
    "id": 8583806,
    "parentId": 3514780,
    "country": "MX",
    "name": "Álamo Temapache",
    "fullName": null,
    "lat": 20.98922,
    "lng": -97.70592,
    "tz": "America/Mexico_City"
  },
  {
    "id": 8583556,
    "parentId": 3514780,
    "country": "MX",
    "name": "Alpatláhuac",
    "fullName": null,
    "lat": 19.10155,
    "lng": -97.12174,
    "tz": "America/Mexico_City"
  },
  {
    "id": 8583557,
    "parentId": 3514780,
    "country": "MX",
    "name": "Alto Lucero de Gutiérrez Barrios",
    "fullName": null,
    "lat": 19.74591,
    "lng": -96.55942,
    "tz": "America/Mexico_City"
  },
  {
    "id": 8583558,
    "parentId": 3514780,
    "country": "MX",
    "name": "Altotonga",
    "fullName": null,
    "lat": 19.77764,
    "lng": -97.13676,
    "tz": "America/Mexico_City"
  },
  {
    "id": 8583559,
    "parentId": 3514780,
    "country": "MX",
    "name": "Alvarado",
    "fullName": null,
    "lat": 18.79998,
    "lng": -95.85029,
    "tz": "America/Mexico_City"
  },
  {
    "id": 8583560,
    "parentId": 3514780,
    "country": "MX",
    "name": "Amatitlán",
    "fullName": null,
    "lat": 18.43371,
    "lng": -95.68388,
    "tz": "America/Mexico_City"
  },
  {
    "id": 8583562,
    "parentId": 3514780,
    "country": "MX",
    "name": "Amatlán de los Reyes",
    "fullName": null,
    "lat": 18.85706,
    "lng": -96.8812,
    "tz": "America/Mexico_City"
  },
  {
    "id": 8583563,
    "parentId": 3514780,
    "country": "MX",
    "name": "Angel R. Cabada",
    "fullName": null,
    "lat": 18.60798,
    "lng": -95.39724,
    "tz": "America/Mexico_City"
  },
  {
    "id": 8583565,
    "parentId": 3514780,
    "country": "MX",
    "name": "Apazapan",
    "fullName": null,
    "lat": 19.33175,
    "lng": -96.65058,
    "tz": "America/Mexico_City"
  },
  {
    "id": 8583566,
    "parentId": 3514780,
    "country": "MX",
    "name": "Aquila",
    "fullName": null,
    "lat": 18.78958,
    "lng": -97.32319,
    "tz": "America/Mexico_City"
  },
  {
    "id": 8583567,
    "parentId": 3514780,
    "country": "MX",
    "name": "Astacinga",
    "fullName": null,
    "lat": 18.56573,
    "lng": -97.10352,
    "tz": "America/Mexico_City"
  },
  {
    "id": 8583568,
    "parentId": 3514780,
    "country": "MX",
    "name": "Atlahuilco",
    "fullName": null,
    "lat": 18.68308,
    "lng": -97.11553,
    "tz": "America/Mexico_City"
  },
  {
    "id": 8583570,
    "parentId": 3514780,
    "country": "MX",
    "name": "Atoyac",
    "fullName": null,
    "lat": 18.93182,
    "lng": -96.80203,
    "tz": "America/Mexico_City"
  },
  {
    "id": 8583571,
    "parentId": 3514780,
    "country": "MX",
    "name": "Atzacan",
    "fullName": null,
    "lat": 18.93392,
    "lng": -97.07644,
    "tz": "America/Mexico_City"
  },
  {
    "id": 8583572,
    "parentId": 3514780,
    "country": "MX",
    "name": "Atzalan",
    "fullName": null,
    "lat": 19.90698,
    "lng": -97.10567,
    "tz": "America/Mexico_City"
  },
  {
    "id": 8583574,
    "parentId": 3514780,
    "country": "MX",
    "name": "Ayahualulco",
    "fullName": null,
    "lat": 19.38613,
    "lng": -97.14853,
    "tz": "America/Mexico_City"
  },
  {
    "id": 8583575,
    "parentId": 3514780,
    "country": "MX",
    "name": "Banderilla",
    "fullName": null,
    "lat": 19.58259,
    "lng": -96.93999,
    "tz": "America/Mexico_City"
  },
  {
    "id": 8583775,
    "parentId": 3514780,
    "country": "MX",
    "name": "Benito Juárez",
    "fullName": null,
    "lat": 20.82051,
    "lng": -98.19598,
    "tz": "America/Mexico_City"
  },
  {
    "id": 8583576,
    "parentId": 3514780,
    "country": "MX",
    "name": "Boca del Río",
    "fullName": null,
    "lat": 19.11741,
    "lng": -96.12101,
    "tz": "America/Mexico_City"
  },
  {
    "id": 8583577,
    "parentId": 3514780,
    "country": "MX",
    "name": "Calcahualco",
    "fullName": null,
    "lat": 19.13698,
    "lng": -97.14201,
    "tz": "America/Mexico_City"
  },
  {
    "id": 8583555,
    "parentId": 3514780,
    "country": "MX",
    "name": "Camarón de Tejeda",
    "fullName": null,
    "lat": 19.0081,
    "lng": -96.56807,
    "tz": "America/Mexico_City"
  },
  {
    "id": 8583578,
    "parentId": 3514780,
    "country": "MX",
    "name": "Camerino Z. Mendoza",
    "fullName": null,
    "lat": 18.78246,
    "lng": -97.16016,
    "tz": "America/Mexico_City"
  },
  {
    "id": 8583854,
    "parentId": 3514780,
    "country": "MX",
    "name": "Carlos A. Carrillo",
    "fullName": null,
    "lat": 18.33236,
    "lng": -95.71803,
    "tz": "America/Mexico_City"
  },
  {
    "id": 8583579,
    "parentId": 3514780,
    "country": "MX",
    "name": "Carrillo Puerto",
    "fullName": null,
    "lat": 18.81314,
    "lng": -96.5823,
    "tz": "America/Mexico_City"
  },
  {
    "id": 8583803,
    "parentId": 3514780,
    "country": "MX",
    "name": "Castillo de Teayo",
    "fullName": null,
    "lat": 20.74135,
    "lng": -97.66521,
    "tz": "America/Mexico_City"
  },
  {
    "id": 8583580,
    "parentId": 3514780,
    "country": "MX",
    "name": "Catemaco",
    "fullName": null,
    "lat": 18.45093,
    "lng": -95.05263,
    "tz": "America/Mexico_City"
  },
  {
    "id": 8583581,
    "parentId": 3514780,
    "country": "MX",
    "name": "Cazones de Herrera",
    "fullName": null,
    "lat": 20.70854,
    "lng": -97.28959,
    "tz": "America/Mexico_City"
  },
  {
    "id": 8583582,
    "parentId": 3514780,
    "country": "MX",
    "name": "Cerro Azul",
    "fullName": null,
    "lat": 21.17864,
    "lng": -97.76933,
    "tz": "America/Mexico_City"
  },
  {
    "id": 8583700,
    "parentId": 3514780,
    "country": "MX",
    "name": "Chacaltianguis",
    "fullName": null,
    "lat": 18.23089,
    "lng": -95.81005,
    "tz": "America/Mexico_City"
  },
  {
    "id": 8583701,
    "parentId": 3514780,
    "country": "MX",
    "name": "Chalma",
    "fullName": null,
    "lat": 21.20799,
    "lng": -98.37526,
    "tz": "America/Mexico_City"
  },
  {
    "id": 8583702,
    "parentId": 3514780,
    "country": "MX",
    "name": "Chiconamel",
    "fullName": null,
    "lat": 21.24326,
    "lng": -98.45426,
    "tz": "America/Mexico_City"
  },
  {
    "id": 8583703,
    "parentId": 3514780,
    "country": "MX",
    "name": "Chiconquiaco",
    "fullName": null,
    "lat": 19.75179,
    "lng": -96.7775,
    "tz": "America/Mexico_City"
  },
  {
    "id": 8583704,
    "parentId": 3514780,
    "country": "MX",
    "name": "Chicontepec",
    "fullName": null,
    "lat": 20.97747,
    "lng": -98.06251,
    "tz": "America/Mexico_City"
  },
  {
    "id": 8583705,
    "parentId": 3514780,
    "country": "MX",
    "name": "Chinameca",
    "fullName": null,
    "lat": 18.06113,
    "lng": -94.70874,
    "tz": "America/Mexico_City"
  },
  {
    "id": 8583706,
    "parentId": 3514780,
    "country": "MX",
    "name": "Chinampa de Gorostiza",
    "fullName": null,
    "lat": 21.37066,
    "lng": -97.66835,
    "tz": "America/Mexico_City"
  },
  {
    "id": 8583708,
    "parentId": 3514780,
    "country": "MX",
    "name": "Chocamán",
    "fullName": null,
    "lat": 18.99779,
    "lng": -97.04299,
    "tz": "America/Mexico_City"
  },
  {
    "id": 8583709,
    "parentId": 3514780,
    "country": "MX",
    "name": "Chontla",
    "fullName": null,
    "lat": 21.39198,
    "lng": -97.97877,
    "tz": "America/Mexico_City"
  },
  {
    "id": 8583710,
    "parentId": 3514780,
    "country": "MX",
    "name": "Chumatlán",
    "fullName": null,
    "lat": 20.22,
    "lng": -97.58667,
    "tz": "America/Mexico_City"
  },
  {
    "id": 8583583,
    "parentId": 3514780,
    "country": "MX",
    "name": "Citlaltépetl",
    "fullName": null,
    "lat": 21.34351,
    "lng": -97.89201,
    "tz": "America/Mexico_City"
  },
  {
    "id": 8583584,
    "parentId": 3514780,
    "country": "MX",
    "name": "Coacoatzintla",
    "fullName": null,
    "lat": 19.67402,
    "lng": -96.94873,
    "tz": "America/Mexico_City"
  },
  {
    "id": 8583585,
    "parentId": 3514780,
    "country": "MX",
    "name": "Coahuitlán",
    "fullName": null,
    "lat": 20.27543,
    "lng": -97.70022,
    "tz": "America/Mexico_City"
  },
  {
    "id": 8583586,
    "parentId": 3514780,
    "country": "MX",
    "name": "Coatepec",
    "fullName": null,
    "lat": 19.45126,
    "lng": -96.9394,
    "tz": "America/Mexico_City"
  },
  {
    "id": 8583587,
    "parentId": 3514780,
    "country": "MX",
    "name": "Coatzacoalcos",
    "fullName": null,
    "lat": 18.12501,
    "lng": -94.38917,
    "tz": "America/Mexico_City"
  },
  {
    "id": 8583588,
    "parentId": 3514780,
    "country": "MX",
    "name": "Coatzintla",
    "fullName": null,
    "lat": 20.45011,
    "lng": -97.51106,
    "tz": "America/Mexico_City"
  },
  {
    "id": 8583589,
    "parentId": 3514780,
    "country": "MX",
    "name": "Coetzala",
    "fullName": null,
    "lat": 18.77378,
    "lng": -96.92378,
    "tz": "America/Mexico_City"
  },
  {
    "id": 8583590,
    "parentId": 3514780,
    "country": "MX",
    "name": "Colipa",
    "fullName": null,
    "lat": 19.93314,
    "lng": -96.70074,
    "tz": "America/Mexico_City"
  },
  {
    "id": 8583591,
    "parentId": 3514780,
    "country": "MX",
    "name": "Comapa",
    "fullName": null,
    "lat": 19.13889,
    "lng": -96.71374,
    "tz": "America/Mexico_City"
  },
  {
    "id": 8583592,
    "parentId": 3514780,
    "country": "MX",
    "name": "Córdoba",
    "fullName": null,
    "lat": 18.92036,
    "lng": -96.94444,
    "tz": "America/Mexico_City"
  },
  {
    "id": 8583593,
    "parentId": 3514780,
    "country": "MX",
    "name": "Cosamaloapan de Carpio",
    "fullName": null,
    "lat": 18.30163,
    "lng": -95.95967,
    "tz": "America/Mexico_City"
  },
  {
    "id": 8583594,
    "parentId": 3514780,
    "country": "MX",
    "name": "Cosautlán de Carvajal",
    "fullName": null,
    "lat": 19.32878,
    "lng": -96.97719,
    "tz": "America/Mexico_City"
  },
  {
    "id": 8583693,
    "parentId": 3514780,
    "country": "MX",
    "name": "Coscomatepec",
    "fullName": null,
    "lat": 19.06337,
    "lng": -97.07362,
    "tz": "America/Mexico_City"
  },
  {
    "id": 8583694,
    "parentId": 3514780,
    "country": "MX",
    "name": "Cosoleacaque",
    "fullName": null,
    "lat": 17.98624,
    "lng": -94.61092,
    "tz": "America/Mexico_City"
  },
  {
    "id": 8583695,
    "parentId": 3514780,
    "country": "MX",
    "name": "Cotaxtla",
    "fullName": null,
    "lat": 18.85606,
    "lng": -96.36282,
    "tz": "America/Mexico_City"
  },
  {
    "id": 8583696,
    "parentId": 3514780,
    "country": "MX",
    "name": "Coxquihui",
    "fullName": null,
    "lat": 20.20944,
    "lng": -97.5523,
    "tz": "America/Mexico_City"
  },
  {
    "id": 8583697,
    "parentId": 3514780,
    "country": "MX",
    "name": "Coyutla",
    "fullName": null,
    "lat": 20.33546,
    "lng": -97.65645,
    "tz": "America/Mexico_City"
  },
  {
    "id": 8583698,
    "parentId": 3514780,
    "country": "MX",
    "name": "Cuichapa",
    "fullName": null,
    "lat": 18.76419,
    "lng": -96.82009,
    "tz": "America/Mexico_City"
  },
  {
    "id": 8583699,
    "parentId": 3514780,
    "country": "MX",
    "name": "Cuitláhuac",
    "fullName": null,
    "lat": 18.79084,
    "lng": -96.73179,
    "tz": "America/Mexico_City"
  },
  {
    "id": 8583851,
    "parentId": 3514780,
    "country": "MX",
    "name": "El Higo",
    "fullName": null,
    "lat": 21.74304,
    "lng": -98.40807,
    "tz": "America/Mexico_City"
  },
  {
    "id": 8583711,
    "parentId": 3514780,
    "country": "MX",
    "name": "Emiliano Zapata",
    "fullName": null,
    "lat": 19.45766,
    "lng": -96.76584,
    "tz": "America/Mexico_City"
  },
  {
    "id": 8583712,
    "parentId": 3514780,
    "country": "MX",
    "name": "Espinal",
    "fullName": null,
    "lat": 20.26997,
    "lng": -97.48927,
    "tz": "America/Mexico_City"
  },
  {
    "id": 8583713,
    "parentId": 3514780,
    "country": "MX",
    "name": "Filomeno Mata",
    "fullName": null,
    "lat": 20.20519,
    "lng": -97.69908,
    "tz": "America/Mexico_City"
  },
  {
    "id": 8583714,
    "parentId": 3514780,
    "country": "MX",
    "name": "Fortín",
    "fullName": null,
    "lat": 18.90448,
    "lng": -96.98906,
    "tz": "America/Mexico_City"
  },
  {
    "id": 8583715,
    "parentId": 3514780,
    "country": "MX",
    "name": "Gutiérrez Zamora",
    "fullName": null,
    "lat": 20.44348,
    "lng": -97.10433,
    "tz": "America/Mexico_City"
  },
  {
    "id": 8583716,
    "parentId": 3514780,
    "country": "MX",
    "name": "Hidalgotitlán",
    "fullName": null,
    "lat": 17.59981,
    "lng": -94.61141,
    "tz": "America/Mexico_City"
  },
  {
    "id": 7778821,
    "parentId": 3514780,
    "country": "MX",
    "name": "Huatusco",
    "fullName": null,
    "lat": 19.14,
    "lng": -96.88,
    "tz": "America/Mexico_City"
  },
  {
    "id": 8583717,
    "parentId": 3514780,
    "country": "MX",
    "name": "Huayacocotla",
    "fullName": null,
    "lat": 20.53861,
    "lng": -98.45224,
    "tz": "America/Mexico_City"
  },
  {
    "id": 8583718,
    "parentId": 3514780,
    "country": "MX",
    "name": "Hueyapan de Ocampo",
    "fullName": null,
    "lat": 18.16582,
    "lng": -95.14919,
    "tz": "America/Mexico_City"
  },
  {
    "id": 8583719,
    "parentId": 3514780,
    "country": "MX",
    "name": "Huiloapan de Cuauhtémoc",
    "fullName": null,
    "lat": 18.82597,
    "lng": -97.13185,
    "tz": "America/Mexico_City"
  },
  {
    "id": 8583720,
    "parentId": 3514780,
    "country": "MX",
    "name": "Ignacio de la Llave",
    "fullName": null,
    "lat": 18.66177,
    "lng": -95.97212,
    "tz": "America/Mexico_City"
  },
  {
    "id": 8583721,
    "parentId": 3514780,
    "country": "MX",
    "name": "Ilamatlán",
    "fullName": null,
    "lat": 20.77448,
    "lng": -98.422,
    "tz": "America/Mexico_City"
  },
  {
    "id": 8583722,
    "parentId": 3514780,
    "country": "MX",
    "name": "Isla",
    "fullName": null,
    "lat": 18.06369,
    "lng": -95.5532,
    "tz": "America/Mexico_City"
  },
  {
    "id": 8583723,
    "parentId": 3514780,
    "country": "MX",
    "name": "Ixcatepec",
    "fullName": null,
    "lat": 21.24107,
    "lng": -98.02256,
    "tz": "America/Mexico_City"
  },
  {
    "id": 8583724,
    "parentId": 3514780,
    "country": "MX",
    "name": "Ixhuacán de los Reyes",
    "fullName": null,
    "lat": 19.35561,
    "lng": -97.08071,
    "tz": "America/Mexico_City"
  },
  {
    "id": 8583728,
    "parentId": 3514780,
    "country": "MX",
    "name": "Ixhuatlán de Madero",
    "fullName": null,
    "lat": 20.72862,
    "lng": -98.01656,
    "tz": "America/Mexico_City"
  },
  {
    "id": 8583725,
    "parentId": 3514780,
    "country": "MX",
    "name": "Ixhuatlán del Café",
    "fullName": null,
    "lat": 19.04179,
    "lng": -96.92694,
    "tz": "America/Mexico_City"
  },
  {
    "id": 8583727,
    "parentId": 3514780,
    "country": "MX",
    "name": "Ixhuatlán del Sureste",
    "fullName": null,
    "lat": 18.01368,
    "lng": -94.37794,
    "tz": "America/Mexico_City"
  },
  {
    "id": 8583726,
    "parentId": 3514780,
    "country": "MX",
    "name": "Ixhuatlancillo",
    "fullName": null,
    "lat": 18.88936,
    "lng": -97.13804,
    "tz": "America/Mexico_City"
  },
  {
    "id": 8583729,
    "parentId": 3514780,
    "country": "MX",
    "name": "Ixmatlahuacan",
    "fullName": null,
    "lat": 18.45208,
    "lng": -95.88163,
    "tz": "America/Mexico_City"
  },
  {
    "id": 8583730,
    "parentId": 3514780,
    "country": "MX",
    "name": "Ixtaczoquitlán",
    "fullName": null,
    "lat": 18.85977,
    "lng": -97.03102,
    "tz": "America/Mexico_City"
  },
  {
    "id": 8583731,
    "parentId": 3514780,
    "country": "MX",
    "name": "Jalacingo",
    "fullName": null,
    "lat": 19.77299,
    "lng": -97.28618,
    "tz": "America/Mexico_City"
  },
  {
    "id": 8583733,
    "parentId": 3514780,
    "country": "MX",
    "name": "Jalcomulco",
    "fullName": null,
    "lat": 19.33827,
    "lng": -96.7625,
    "tz": "America/Mexico_City"
  },
  {
    "id": 8583734,
    "parentId": 3514780,
    "country": "MX",
    "name": "Jáltipan",
    "fullName": null,
    "lat": 17.90855,
    "lng": -94.72631,
    "tz": "America/Mexico_City"
  },
  {
    "id": 8583735,
    "parentId": 3514780,
    "country": "MX",
    "name": "Jamapa",
    "fullName": null,
    "lat": 19.00747,
    "lng": -96.25629,
    "tz": "America/Mexico_City"
  },
  {
    "id": 8583736,
    "parentId": 3514780,
    "country": "MX",
    "name": "Jesús Carranza",
    "fullName": null,
    "lat": 17.4411,
    "lng": -94.97213,
    "tz": "America/Mexico_City"
  },
  {
    "id": 8583738,
    "parentId": 3514780,
    "country": "MX",
    "name": "Jilotepec",
    "fullName": null,
    "lat": 19.61132,
    "lng": -96.92243,
    "tz": "America/Mexico_City"
  },
  {
    "id": 8583815,
    "parentId": 3514780,
    "country": "MX",
    "name": "José Azueta",
    "fullName": null,
    "lat": 18.09623,
    "lng": -95.71473,
    "tz": "America/Mexico_City"
  },
  {
    "id": 8583739,
    "parentId": 3514780,
    "country": "MX",
    "name": "Juan Rodríguez Clara",
    "fullName": null,
    "lat": 18.00121,
    "lng": -95.37856,
    "tz": "America/Mexico_City"
  },
  {
    "id": 8583740,
    "parentId": 3514780,
    "country": "MX",
    "name": "Juchique de Ferrer",
    "fullName": null,
    "lat": 19.81651,
    "lng": -96.67215,
    "tz": "America/Mexico_City"
  },
  {
    "id": 8583564,
    "parentId": 3514780,
    "country": "MX",
    "name": "La Antigua",
    "fullName": null,
    "lat": 19.31619,
    "lng": -96.31736,
    "tz": "America/Mexico_City"
  },
  {
    "id": 8583772,
    "parentId": 3514780,
    "country": "MX",
    "name": "La Perla",
    "fullName": null,
    "lat": 18.97537,
    "lng": -97.16387,
    "tz": "America/Mexico_City"
  },
  {
    "id": 8583741,
    "parentId": 3514780,
    "country": "MX",
    "name": "Landero y Coss",
    "fullName": null,
    "lat": 19.73935,
    "lng": -96.85009,
    "tz": "America/Mexico_City"
  },
  {
    "id": 8583707,
    "parentId": 3514780,
    "country": "MX",
    "name": "Las Choapas",
    "fullName": null,
    "lat": 17.67853,
    "lng": -94.00406,
    "tz": "America/Mexico_City"
  },
  {
    "id": 8583752,
    "parentId": 3514780,
    "country": "MX",
    "name": "Las Minas",
    "fullName": null,
    "lat": 19.70449,
    "lng": -97.14699,
    "tz": "America/Mexico_City"
  },
  {
    "id": 8583778,
    "parentId": 3514780,
    "country": "MX",
    "name": "Las Vigas de Ramírez",
    "fullName": null,
    "lat": 19.63274,
    "lng": -97.08817,
    "tz": "America/Mexico_City"
  },
  {
    "id": 8583742,
    "parentId": 3514780,
    "country": "MX",
    "name": "Lerdo de Tejada",
    "fullName": null,
    "lat": 18.63802,
    "lng": -95.50847,
    "tz": "America/Mexico_City"
  },
  {
    "id": 8583783,
    "parentId": 3514780,
    "country": "MX",
    "name": "Los Reyes",
    "fullName": null,
    "lat": 18.67428,
    "lng": -97.03851,
    "tz": "America/Mexico_City"
  },
  {
    "id": 8583743,
    "parentId": 3514780,
    "country": "MX",
    "name": "Magdalena",
    "fullName": null,
    "lat": 18.76066,
    "lng": -97.04385,
    "tz": "America/Mexico_City"
  },
  {
    "id": 8583744,
    "parentId": 3514780,
    "country": "MX",
    "name": "Maltrata",
    "fullName": null,
    "lat": 18.83827,
    "lng": -97.27318,
    "tz": "America/Mexico_City"
  },
  {
    "id": 8583745,
    "parentId": 3514780,
    "country": "MX",
    "name": "Manlio Fabio Altamirano",
    "fullName": null,
    "lat": 19.10032,
    "lng": -96.34109,
    "tz": "America/Mexico_City"
  },
  {
    "id": 8583746,
    "parentId": 3514780,
    "country": "MX",
    "name": "Mariano Escobedo",
    "fullName": null,
    "lat": 18.93173,
    "lng": -97.1684,
    "tz": "America/Mexico_City"
  },
  {
    "id": 8583747,
    "parentId": 3514780,
    "country": "MX",
    "name": "Martínez de la Torre",
    "fullName": null,
    "lat": 20.11913,
    "lng": -97.04661,
    "tz": "America/Mexico_City"
  },
  {
    "id": 8583748,
    "parentId": 3514780,
    "country": "MX",
    "name": "Mecatlán",
    "fullName": null,
    "lat": 20.21349,
    "lng": -97.65741,
    "tz": "America/Mexico_City"
  },
  {
    "id": 8583749,
    "parentId": 3514780,
    "country": "MX",
    "name": "Mecayapan",
    "fullName": null,
    "lat": 18.28946,
    "lng": -94.81611,
    "tz": "America/Mexico_City"
  },
  {
    "id": 8583750,
    "parentId": 3514780,
    "country": "MX",
    "name": "Medellín",
    "fullName": null,
    "lat": 19.00418,
    "lng": -96.15836,
    "tz": "America/Mexico_City"
  },
  {
    "id": 8583751,
    "parentId": 3514780,
    "country": "MX",
    "name": "Miahuatlán",
    "fullName": null,
    "lat": 19.73629,
    "lng": -96.88062,
    "tz": "America/Mexico_City"
  },
  {
    "id": 8583753,
    "parentId": 3514780,
    "country": "MX",
    "name": "Minatitlán",
    "fullName": null,
    "lat": 17.78021,
    "lng": -94.41216,
    "tz": "America/Mexico_City"
  },
  {
    "id": 8583754,
    "parentId": 3514780,
    "country": "MX",
    "name": "Misantla",
    "fullName": null,
    "lat": 19.98196,
    "lng": -96.89248,
    "tz": "America/Mexico_City"
  },
  {
    "id": 8583755,
    "parentId": 3514780,
    "country": "MX",
    "name": "Mixtla de Altamirano",
    "fullName": null,
    "lat": 18.591,
    "lng": -96.97667,
    "tz": "America/Mexico_City"
  },
  {
    "id": 8583756,
    "parentId": 3514780,
    "country": "MX",
    "name": "Moloacán",
    "fullName": null,
    "lat": 17.97682,
    "lng": -94.27843,
    "tz": "America/Mexico_City"
  },
  {
    "id": 8583852,
    "parentId": 3514780,
    "country": "MX",
    "name": "Nanchital de Lázaro Cárdenas del Río",
    "fullName": null,
    "lat": 18.05875,
    "lng": -94.38953,
    "tz": "America/Mexico_City"
  },
  {
    "id": 8583757,
    "parentId": 3514780,
    "country": "MX",
    "name": "Naolinco",
    "fullName": null,
    "lat": 19.63666,
    "lng": -96.85254,
    "tz": "America/Mexico_City"
  },
  {
    "id": 8583758,
    "parentId": 3514780,
    "country": "MX",
    "name": "Naranjal",
    "fullName": null,
    "lat": 18.79836,
    "lng": -96.95972,
    "tz": "America/Mexico_City"
  },
  {
    "id": 8583561,
    "parentId": 3514780,
    "country": "MX",
    "name": "Naranjos Amatlán",
    "fullName": null,
    "lat": 21.31139,
    "lng": -97.69131,
    "tz": "America/Mexico_City"
  },
  {
    "id": 8583759,
    "parentId": 3514780,
    "country": "MX",
    "name": "Nautla",
    "fullName": null,
    "lat": 20.11993,
    "lng": -96.78813,
    "tz": "America/Mexico_City"
  },
  {
    "id": 8583760,
    "parentId": 3514780,
    "country": "MX",
    "name": "Nogales",
    "fullName": null,
    "lat": 18.82337,
    "lng": -97.19824,
    "tz": "America/Mexico_City"
  },
  {
    "id": 8583761,
    "parentId": 3514780,
    "country": "MX",
    "name": "Oluta",
    "fullName": null,
    "lat": 17.91695,
    "lng": -94.89234,
    "tz": "America/Mexico_City"
  },
  {
    "id": 8583762,
    "parentId": 3514780,
    "country": "MX",
    "name": "Omealca",
    "fullName": null,
    "lat": 18.72043,
    "lng": -96.7384,
    "tz": "America/Mexico_City"
  },
  {
    "id": 8583763,
    "parentId": 3514780,
    "country": "MX",
    "name": "Orizaba",
    "fullName": null,
    "lat": 18.85685,
    "lng": -97.10926,
    "tz": "America/Mexico_City"
  },
  {
    "id": 8583764,
    "parentId": 3514780,
    "country": "MX",
    "name": "Otatitlán",
    "fullName": null,
    "lat": 18.16373,
    "lng": -96.03472,
    "tz": "America/Mexico_City"
  },
  {
    "id": 8583765,
    "parentId": 3514780,
    "country": "MX",
    "name": "Oteapan",
    "fullName": null,
    "lat": 17.97877,
    "lng": -94.67786,
    "tz": "America/Mexico_City"
  },
  {
    "id": 8583766,
    "parentId": 3514780,
    "country": "MX",
    "name": "Ozuluama de Mascareñas",
    "fullName": null,
    "lat": 21.68032,
    "lng": -97.9093,
    "tz": "America/Mexico_City"
  },
  {
    "id": 8583767,
    "parentId": 3514780,
    "country": "MX",
    "name": "Pajapan",
    "fullName": null,
    "lat": 18.17439,
    "lng": -94.66218,
    "tz": "America/Mexico_City"
  },
  {
    "id": 8583768,
    "parentId": 3514780,
    "country": "MX",
    "name": "Pánuco",
    "fullName": null,
    "lat": 22.05888,
    "lng": -98.25974,
    "tz": "America/Mexico_City"
  },
  {
    "id": 8583769,
    "parentId": 3514780,
    "country": "MX",
    "name": "Papantla",
    "fullName": null,
    "lat": 20.43998,
    "lng": -97.3087,
    "tz": "America/Mexico_City"
  },
  {
    "id": 8583771,
    "parentId": 3514780,
    "country": "MX",
    "name": "Paso de Ovejas",
    "fullName": null,
    "lat": 19.26038,
    "lng": -96.41292,
    "tz": "America/Mexico_City"
  },
  {
    "id": 8583770,
    "parentId": 3514780,
    "country": "MX",
    "name": "Paso del Macho",
    "fullName": null,
    "lat": 18.95015,
    "lng": -96.68174,
    "tz": "America/Mexico_City"
  },
  {
    "id": 8583773,
    "parentId": 3514780,
    "country": "MX",
    "name": "Perote",
    "fullName": null,
    "lat": 19.54277,
    "lng": -97.25833,
    "tz": "America/Mexico_City"
  },
  {
    "id": 8583774,
    "parentId": 3514780,
    "country": "MX",
    "name": "Platón Sánchez",
    "fullName": null,
    "lat": 21.2962,
    "lng": -98.42191,
    "tz": "America/Mexico_City"
  },
  {
    "id": 8583776,
    "parentId": 3514780,
    "country": "MX",
    "name": "Playa Vicente",
    "fullName": null,
    "lat": 17.77859,
    "lng": -95.65366,
    "tz": "America/Mexico_City"
  },
  {
    "id": 8583777,
    "parentId": 3514780,
    "country": "MX",
    "name": "Poza Rica de Hidalgo",
    "fullName": null,
    "lat": 20.52748,
    "lng": -97.42109,
    "tz": "America/Mexico_City"
  },
  {
    "id": 8583779,
    "parentId": 3514780,
    "country": "MX",
    "name": "Pueblo Viejo",
    "fullName": null,
    "lat": 22.16081,
    "lng": -97.91013,
    "tz": "America/Mexico_City"
  },
  {
    "id": 8583780,
    "parentId": 3514780,
    "country": "MX",
    "name": "Puente Nacional",
    "fullName": null,
    "lat": 19.31278,
    "lng": -96.54812,
    "tz": "America/Mexico_City"
  },
  {
    "id": 8583781,
    "parentId": 3514780,
    "country": "MX",
    "name": "Rafael Delgado",
    "fullName": null,
    "lat": 18.79608,
    "lng": -97.1225,
    "tz": "America/Mexico_City"
  },
  {
    "id": 8583782,
    "parentId": 3514780,
    "country": "MX",
    "name": "Rafael Lucio",
    "fullName": null,
    "lat": 19.59218,
    "lng": -96.98194,
    "tz": "America/Mexico_City"
  },
  {
    "id": 8583784,
    "parentId": 3514780,
    "country": "MX",
    "name": "Río Blanco",
    "fullName": null,
    "lat": 18.83867,
    "lng": -97.15717,
    "tz": "America/Mexico_City"
  },
  {
    "id": 8583785,
    "parentId": 3514780,
    "country": "MX",
    "name": "Saltabarranca",
    "fullName": null,
    "lat": 18.56921,
    "lng": -95.51698,
    "tz": "America/Mexico_City"
  },
  {
    "id": 8583786,
    "parentId": 3514780,
    "country": "MX",
    "name": "San Andrés Tenejapan",
    "fullName": null,
    "lat": 18.77389,
    "lng": -97.08583,
    "tz": "America/Mexico_City"
  },
  {
    "id": 8583787,
    "parentId": 3514780,
    "country": "MX",
    "name": "San Andrés Tuxtla",
    "fullName": null,
    "lat": 18.45055,
    "lng": -95.21836,
    "tz": "America/Mexico_City"
  },
  {
    "id": 8583788,
    "parentId": 3514780,
    "country": "MX",
    "name": "San Juan Evangelista",
    "fullName": null,
    "lat": 17.76387,
    "lng": -95.15015,
    "tz": "America/Mexico_City"
  },
  {
    "id": 8583857,
    "parentId": 3514780,
    "country": "MX",
    "name": "San Rafael",
    "fullName": null,
    "lat": 20.20874,
    "lng": -96.91563,
    "tz": "America/Mexico_City"
  },
  {
    "id": 8583858,
    "parentId": 3514780,
    "country": "MX",
    "name": "Santiago Sochiapan",
    "fullName": null,
    "lat": 17.61585,
    "lng": -95.65276,
    "tz": "America/Mexico_City"
  },
  {
    "id": 8583789,
    "parentId": 3514780,
    "country": "MX",
    "name": "Santiago Tuxtla",
    "fullName": null,
    "lat": 18.4204,
    "lng": -95.3752,
    "tz": "America/Mexico_City"
  },
  {
    "id": 8583790,
    "parentId": 3514780,
    "country": "MX",
    "name": "Sayula de Alemán",
    "fullName": null,
    "lat": 17.79261,
    "lng": -94.96558,
    "tz": "America/Mexico_City"
  },
  {
    "id": 8583792,
    "parentId": 3514780,
    "country": "MX",
    "name": "Sochiapa",
    "fullName": null,
    "lat": 19.17313,
    "lng": -96.9222,
    "tz": "America/Mexico_City"
  },
  {
    "id": 8583791,
    "parentId": 3514780,
    "country": "MX",
    "name": "Soconusco",
    "fullName": null,
    "lat": 17.99182,
    "lng": -94.84516,
    "tz": "America/Mexico_City"
  },
  {
    "id": 8583793,
    "parentId": 3514780,
    "country": "MX",
    "name": "Soledad Atzompa",
    "fullName": null,
    "lat": 18.72067,
    "lng": -97.17236,
    "tz": "America/Mexico_City"
  },
  {
    "id": 8583794,
    "parentId": 3514780,
    "country": "MX",
    "name": "Soledad de Doblado",
    "fullName": null,
    "lat": 19.03929,
    "lng": -96.44185,
    "tz": "America/Mexico_City"
  },
  {
    "id": 8583795,
    "parentId": 3514780,
    "country": "MX",
    "name": "Soteapan",
    "fullName": null,
    "lat": 18.25484,
    "lng": -94.92849,
    "tz": "America/Mexico_City"
  },
  {
    "id": 8583796,
    "parentId": 3514780,
    "country": "MX",
    "name": "Tamalín",
    "fullName": null,
    "lat": 21.50245,
    "lng": -97.69351,
    "tz": "America/Mexico_City"
  },
  {
    "id": 8583797,
    "parentId": 3514780,
    "country": "MX",
    "name": "Tamiahua",
    "fullName": null,
    "lat": 21.28886,
    "lng": -97.49987,
    "tz": "America/Mexico_City"
  },
  {
    "id": 8583798,
    "parentId": 3514780,
    "country": "MX",
    "name": "Tampico Alto",
    "fullName": null,
    "lat": 21.99727,
    "lng": -97.82398,
    "tz": "America/Mexico_City"
  },
  {
    "id": 8583799,
    "parentId": 3514780,
    "country": "MX",
    "name": "Tancoco",
    "fullName": null,
    "lat": 21.25393,
    "lng": -97.75303,
    "tz": "America/Mexico_City"
  },
  {
    "id": 8583800,
    "parentId": 3514780,
    "country": "MX",
    "name": "Tantima",
    "fullName": null,
    "lat": 21.43101,
    "lng": -97.74605,
    "tz": "America/Mexico_City"
  },
  {
    "id": 8583801,
    "parentId": 3514780,
    "country": "MX",
    "name": "Tantoyuca",
    "fullName": null,
    "lat": 21.39307,
    "lng": -98.18453,
    "tz": "America/Mexico_City"
  },
  {
    "id": 8583855,
    "parentId": 3514780,
    "country": "MX",
    "name": "Tatahuicapan de Juárez",
    "fullName": null,
    "lat": 18.36007,
    "lng": -94.77981,
    "tz": "America/Mexico_City"
  },
  {
    "id": 8583802,
    "parentId": 3514780,
    "country": "MX",
    "name": "Tatatila",
    "fullName": null,
    "lat": 19.7104,
    "lng": -97.0869,
    "tz": "America/Mexico_City"
  },
  {
    "id": 8583804,
    "parentId": 3514780,
    "country": "MX",
    "name": "Tecolutla",
    "fullName": null,
    "lat": 20.38809,
    "lng": -97.02534,
    "tz": "America/Mexico_City"
  },
  {
    "id": 8583805,
    "parentId": 3514780,
    "country": "MX",
    "name": "Tehuipango",
    "fullName": null,
    "lat": 18.52457,
    "lng": -97.05645,
    "tz": "America/Mexico_City"
  },
  {
    "id": 8583807,
    "parentId": 3514780,
    "country": "MX",
    "name": "Tempoal",
    "fullName": null,
    "lat": 21.56506,
    "lng": -98.37907,
    "tz": "America/Mexico_City"
  },
  {
    "id": 8583808,
    "parentId": 3514780,
    "country": "MX",
    "name": "Tenampa",
    "fullName": null,
    "lat": 19.24626,
    "lng": -96.86858,
    "tz": "America/Mexico_City"
  },
  {
    "id": 8583809,
    "parentId": 3514780,
    "country": "MX",
    "name": "Tenochtitlán",
    "fullName": null,
    "lat": 19.81188,
    "lng": -96.93247,
    "tz": "America/Mexico_City"
  },
  {
    "id": 8583810,
    "parentId": 3514780,
    "country": "MX",
    "name": "Teocelo",
    "fullName": null,
    "lat": 19.37875,
    "lng": -96.97759,
    "tz": "America/Mexico_City"
  },
  {
    "id": 8583811,
    "parentId": 3514780,
    "country": "MX",
    "name": "Tepatlaxco",
    "fullName": null,
    "lat": 19.04803,
    "lng": -96.8466,
    "tz": "America/Mexico_City"
  },
  {
    "id": 8583812,
    "parentId": 3514780,
    "country": "MX",
    "name": "Tepetlán",
    "fullName": null,
    "lat": 19.6695,
    "lng": -96.77565,
    "tz": "America/Mexico_City"
  },
  {
    "id": 8583813,
    "parentId": 3514780,
    "country": "MX",
    "name": "Tepetzintla",
    "fullName": null,
    "lat": 21.14517,
    "lng": -97.85576,
    "tz": "America/Mexico_City"
  },
  {
    "id": 8583814,
    "parentId": 3514780,
    "country": "MX",
    "name": "Tequila",
    "fullName": null,
    "lat": 18.74004,
    "lng": -97.02146,
    "tz": "America/Mexico_City"
  },
  {
    "id": 8583816,
    "parentId": 3514780,
    "country": "MX",
    "name": "Texcatepec",
    "fullName": null,
    "lat": 20.62519,
    "lng": -98.30939,
    "tz": "America/Mexico_City"
  },
  {
    "id": 8583817,
    "parentId": 3514780,
    "country": "MX",
    "name": "Texhuacán",
    "fullName": null,
    "lat": 18.62238,
    "lng": -97.02275,
    "tz": "America/Mexico_City"
  },
  {
    "id": 8583818,
    "parentId": 3514780,
    "country": "MX",
    "name": "Texistepec",
    "fullName": null,
    "lat": 17.81982,
    "lng": -94.79908,
    "tz": "America/Mexico_City"
  },
  {
    "id": 8583819,
    "parentId": 3514780,
    "country": "MX",
    "name": "Tezonapa",
    "fullName": null,
    "lat": 18.57232,
    "lng": -96.76956,
    "tz": "America/Mexico_City"
  },
  {
    "id": 8583820,
    "parentId": 3514780,
    "country": "MX",
    "name": "Tierra Blanca",
    "fullName": null,
    "lat": 18.54527,
    "lng": -96.29944,
    "tz": "America/Mexico_City"
  },
  {
    "id": 8583821,
    "parentId": 3514780,
    "country": "MX",
    "name": "Tihuatlán",
    "fullName": null,
    "lat": 20.65485,
    "lng": -97.52598,
    "tz": "America/Mexico_City"
  },
  {
    "id": 8583826,
    "parentId": 3514780,
    "country": "MX",
    "name": "Tlachichilco",
    "fullName": null,
    "lat": 20.60272,
    "lng": -98.19187,
    "tz": "America/Mexico_City"
  },
  {
    "id": 8583822,
    "parentId": 3514780,
    "country": "MX",
    "name": "Tlacojalpan",
    "fullName": null,
    "lat": 18.20208,
    "lng": -95.94469,
    "tz": "America/Mexico_City"
  },
  {
    "id": 8583823,
    "parentId": 3514780,
    "country": "MX",
    "name": "Tlacolulan",
    "fullName": null,
    "lat": 19.69051,
    "lng": -97.00869,
    "tz": "America/Mexico_City"
  },
  {
    "id": 8583824,
    "parentId": 3514780,
    "country": "MX",
    "name": "Tlacotalpan",
    "fullName": null,
    "lat": 18.54677,
    "lng": -95.63159,
    "tz": "America/Mexico_City"
  },
  {
    "id": 8583825,
    "parentId": 3514780,
    "country": "MX",
    "name": "Tlacotepec de Mejía",
    "fullName": null,
    "lat": 19.18139,
    "lng": -96.79919,
    "tz": "America/Mexico_City"
  },
  {
    "id": 8583827,
    "parentId": 3514780,
    "country": "MX",
    "name": "Tlalixcoyan",
    "fullName": null,
    "lat": 18.75261,
    "lng": -96.17538,
    "tz": "America/Mexico_City"
  },
  {
    "id": 8583828,
    "parentId": 3514780,
    "country": "MX",
    "name": "Tlalnelhuayocan",
    "fullName": null,
    "lat": 19.53481,
    "lng": -96.97414,
    "tz": "America/Mexico_City"
  },
  {
    "id": 8583573,
    "parentId": 3514780,
    "country": "MX",
    "name": "Tlaltetela",
    "fullName": null,
    "lat": 19.28889,
    "lng": -96.89052,
    "tz": "America/Mexico_City"
  },
  {
    "id": 8583829,
    "parentId": 3514780,
    "country": "MX",
    "name": "Tlapacoyan",
    "fullName": null,
    "lat": 20.01899,
    "lng": -97.17215,
    "tz": "America/Mexico_City"
  },
  {
    "id": 8583830,
    "parentId": 3514780,
    "country": "MX",
    "name": "Tlaquilpa",
    "fullName": null,
    "lat": 18.60882,
    "lng": -97.11054,
    "tz": "America/Mexico_City"
  },
  {
    "id": 8583831,
    "parentId": 3514780,
    "country": "MX",
    "name": "Tlilapan",
    "fullName": null,
    "lat": 18.7971,
    "lng": -97.08794,
    "tz": "America/Mexico_City"
  },
  {
    "id": 8583832,
    "parentId": 3514780,
    "country": "MX",
    "name": "Tomatlán",
    "fullName": null,
    "lat": 19.02028,
    "lng": -96.99565,
    "tz": "America/Mexico_City"
  },
  {
    "id": 8583833,
    "parentId": 3514780,
    "country": "MX",
    "name": "Tonayán",
    "fullName": null,
    "lat": 19.71228,
    "lng": -96.91959,
    "tz": "America/Mexico_City"
  },
  {
    "id": 8583834,
    "parentId": 3514780,
    "country": "MX",
    "name": "Totutla",
    "fullName": null,
    "lat": 19.23283,
    "lng": -96.93926,
    "tz": "America/Mexico_City"
  },
  {
    "id": 8583853,
    "parentId": 3514780,
    "country": "MX",
    "name": "Tres Valles",
    "fullName": null,
    "lat": 18.30507,
    "lng": -96.17088,
    "tz": "America/Mexico_City"
  },
  {
    "id": 8583835,
    "parentId": 3514780,
    "country": "MX",
    "name": "Tuxpan",
    "fullName": null,
    "lat": 20.94633,
    "lng": -97.42603,
    "tz": "America/Mexico_City"
  },
  {
    "id": 8583836,
    "parentId": 3514780,
    "country": "MX",
    "name": "Tuxtilla",
    "fullName": null,
    "lat": 18.1879,
    "lng": -95.88014,
    "tz": "America/Mexico_City"
  },
  {
    "id": 8583837,
    "parentId": 3514780,
    "country": "MX",
    "name": "Ursulo Galván",
    "fullName": null,
    "lat": 19.43929,
    "lng": -96.38764,
    "tz": "America/Mexico_City"
  },
  {
    "id": 8583856,
    "parentId": 3514780,
    "country": "MX",
    "name": "Uxpanapa",
    "fullName": null,
    "lat": 17.27501,
    "lng": -94.42594,
    "tz": "America/Mexico_City"
  },
  {
    "id": 8583838,
    "parentId": 3514780,
    "country": "MX",
    "name": "Vega de Alatorre",
    "fullName": null,
    "lat": 19.9752,
    "lng": -96.6321,
    "tz": "America/Mexico_City"
  },
  {
    "id": 8583839,
    "parentId": 3514780,
    "country": "MX",
    "name": "Veracruz",
    "fullName": null,
    "lat": 19.17781,
    "lng": -96.22776,
    "tz": "America/Mexico_City"
  },
  {
    "id": 8583840,
    "parentId": 3514780,
    "country": "MX",
    "name": "Villa Aldama",
    "fullName": null,
    "lat": 19.65136,
    "lng": -97.20599,
    "tz": "America/Mexico_City"
  },
  {
    "id": 8583732,
    "parentId": 3514780,
    "country": "MX",
    "name": "Xalapa",
    "fullName": null,
    "lat": 19.54674,
    "lng": -96.88139,
    "tz": "America/Mexico_City"
  },
  {
    "id": 8583737,
    "parentId": 3514780,
    "country": "MX",
    "name": "Xico",
    "fullName": null,
    "lat": 19.43991,
    "lng": -97.04332,
    "tz": "America/Mexico_City"
  },
  {
    "id": 8583841,
    "parentId": 3514780,
    "country": "MX",
    "name": "Xoxocotla",
    "fullName": null,
    "lat": 18.63184,
    "lng": -97.16062,
    "tz": "America/Mexico_City"
  },
  {
    "id": 8583842,
    "parentId": 3514780,
    "country": "MX",
    "name": "Yanga",
    "fullName": null,
    "lat": 18.81785,
    "lng": -96.79793,
    "tz": "America/Mexico_City"
  },
  {
    "id": 8583843,
    "parentId": 3514780,
    "country": "MX",
    "name": "Yecuatla",
    "fullName": null,
    "lat": 19.85209,
    "lng": -96.77917,
    "tz": "America/Mexico_City"
  },
  {
    "id": 8583844,
    "parentId": 3514780,
    "country": "MX",
    "name": "Zacualpan",
    "fullName": null,
    "lat": 20.49929,
    "lng": -98.33931,
    "tz": "America/Mexico_City"
  },
  {
    "id": 8583845,
    "parentId": 3514780,
    "country": "MX",
    "name": "Zaragoza",
    "fullName": null,
    "lat": 17.94871,
    "lng": -94.64361,
    "tz": "America/Mexico_City"
  },
  {
    "id": 8583846,
    "parentId": 3514780,
    "country": "MX",
    "name": "Zentla",
    "fullName": null,
    "lat": 19.07237,
    "lng": -96.75442,
    "tz": "America/Mexico_City"
  },
  {
    "id": 8583847,
    "parentId": 3514780,
    "country": "MX",
    "name": "Zongolica",
    "fullName": null,
    "lat": 18.65122,
    "lng": -96.93326,
    "tz": "America/Mexico_City"
  },
  {
    "id": 8583848,
    "parentId": 3514780,
    "country": "MX",
    "name": "Zontecomatlán de López y Fuentes",
    "fullName": null,
    "lat": 20.74173,
    "lng": -98.29972,
    "tz": "America/Mexico_City"
  },
  {
    "id": 8583849,
    "parentId": 3514780,
    "country": "MX",
    "name": "Zozocolco de Hidalgo",
    "fullName": null,
    "lat": 20.14035,
    "lng": -97.56125,
    "tz": "America/Mexico_City"
  }
]