[
  {
    "id": 8582472,
    "parentId": 3522509,
    "country": "MX",
    "name": "Abejones",
    "fullName": null,
    "lat": 17.4325,
    "lng": -96.60417,
    "tz": "America/Mexico_City"
  },
  {
    "id": 8582473,
    "parentId": 3522509,
    "country": "MX",
    "name": "Acatlán de Pérez Figueroa",
    "fullName": null,
    "lat": 18.48357,
    "lng": -96.52819,
    "tz": "America/Mexico_City"
  },
  {
    "id": 8582646,
    "parentId": 3522509,
    "country": "MX",
    "name": "Ánimas Trujano",
    "fullName": null,
    "lat": 16.98667,
    "lng": -96.71424,
    "tz": "America/Mexico_City"
  },
  {
    "id": 8582474,
    "parentId": 3522509,
    "country": "MX",
    "name": "Asunción Cacalotepec",
    "fullName": null,
    "lat": 17.0347,
    "lng": -95.93361,
    "tz": "America/Mexico_City"
  },
  {
    "id": 8582475,
    "parentId": 3522509,
    "country": "MX",
    "name": "Asunción Cuyotepeji",
    "fullName": null,
    "lat": 17.92426,
    "lng": -97.6794,
    "tz": "America/Mexico_City"
  },
  {
    "id": 8582476,
    "parentId": 3522509,
    "country": "MX",
    "name": "Asunción Ixtaltepec",
    "fullName": null,
    "lat": 16.5482,
    "lng": -95.03043,
    "tz": "America/Mexico_City"
  },
  {
    "id": 8582477,
    "parentId": 3522509,
    "country": "MX",
    "name": "Asunción Nochixtlán",
    "fullName": null,
    "lat": 17.43751,
    "lng": -97.17967,
    "tz": "America/Mexico_City"
  },
  {
    "id": 8582478,
    "parentId": 3522509,
    "country": "MX",
    "name": "Asunción Ocotlán",
    "fullName": null,
    "lat": 16.75722,
    "lng": -96.72194,
    "tz": "America/Mexico_City"
  },
  {
    "id": 8582479,
    "parentId": 3522509,
    "country": "MX",
    "name": "Asunción Tlacolulita",
    "fullName": null,
    "lat": 16.22612,
    "lng": -95.7662,
    "tz": "America/Mexico_City"
  },
  {
    "id": 8582873,
    "parentId": 3522509,
    "country": "MX",
    "name": "Ayoquezco de Aldama",
    "fullName": null,
    "lat": 16.6849,
    "lng": -96.85919,
    "tz": "America/Mexico_City"
  },
  {
    "id": 8582480,
    "parentId": 3522509,
    "country": "MX",
    "name": "Ayotzintepec",
    "fullName": null,
    "lat": 17.71909,
    "lng": -96.14202,
    "tz": "America/Mexico_City"
  },
  {
    "id": 8582482,
    "parentId": 3522509,
    "country": "MX",
    "name": "Calihualá",
    "fullName": null,
    "lat": 17.53983,
    "lng": -98.26756,
    "tz": "America/Mexico_City"
  },
  {
    "id": 8582483,
    "parentId": 3522509,
    "country": "MX",
    "name": "Candelaria Loxicha",
    "fullName": null,
    "lat": 15.92801,
    "lng": -96.51749,
    "tz": "America/Mexico_City"
  },
  {
    "id": 8582721,
    "parentId": 3522509,
    "country": "MX",
    "name": "Capulálpam de Méndez",
    "fullName": null,
    "lat": 17.30972,
    "lng": -96.44656,
    "tz": "America/Mexico_City"
  },
  {
    "id": 8582496,
    "parentId": 3522509,
    "country": "MX",
    "name": "Chahuites",
    "fullName": null,
    "lat": 16.27267,
    "lng": -94.19986,
    "tz": "America/Mexico_City"
  },
  {
    "id": 8582497,
    "parentId": 3522509,
    "country": "MX",
    "name": "Chalcatongo de Hidalgo",
    "fullName": null,
    "lat": 16.99293,
    "lng": -97.54976,
    "tz": "America/Mexico_City"
  },
  {
    "id": 8582498,
    "parentId": 3522509,
    "country": "MX",
    "name": "Chiquihuitlán de Benito Juárez",
    "fullName": null,
    "lat": 17.99062,
    "lng": -96.75583,
    "tz": "America/Mexico_City"
  },
  {
    "id": 8582484,
    "parentId": 3522509,
    "country": "MX",
    "name": "Ciénega de Zimatlán",
    "fullName": null,
    "lat": 16.89366,
    "lng": -96.76801,
    "tz": "America/Mexico_City"
  },
  {
    "id": 8582485,
    "parentId": 3522509,
    "country": "MX",
    "name": "Ciudad Ixtepec",
    "fullName": null,
    "lat": 16.57628,
    "lng": -95.10983,
    "tz": "America/Mexico_City"
  },
  {
    "id": 8582486,
    "parentId": 3522509,
    "country": "MX",
    "name": "Coatecas Altas",
    "fullName": null,
    "lat": 16.52022,
    "lng": -96.61657,
    "tz": "America/Mexico_City"
  },
  {
    "id": 8582487,
    "parentId": 3522509,
    "country": "MX",
    "name": "Coicoyán de las Flores",
    "fullName": null,
    "lat": 17.21594,
    "lng": -98.18371,
    "tz": "America/Mexico_City"
  },
  {
    "id": 8582489,
    "parentId": 3522509,
    "country": "MX",
    "name": "Concepción Buenavista",
    "fullName": null,
    "lat": 17.96072,
    "lng": -97.42863,
    "tz": "America/Mexico_City"
  },
  {
    "id": 8582490,
    "parentId": 3522509,
    "country": "MX",
    "name": "Concepción Pápalo",
    "fullName": null,
    "lat": 17.85391,
    "lng": -96.84472,
    "tz": "America/Mexico_City"
  },
  {
    "id": 8582491,
    "parentId": 3522509,
    "country": "MX",
    "name": "Constancia del Rosario",
    "fullName": null,
    "lat": 17.05972,
    "lng": -97.99546,
    "tz": "America/Mexico_City"
  },
  {
    "id": 8582492,
    "parentId": 3522509,
    "country": "MX",
    "name": "Cosolapa",
    "fullName": null,
    "lat": 18.58423,
    "lng": -96.66304,
    "tz": "America/Mexico_City"
  },
  {
    "id": 8582493,
    "parentId": 3522509,
    "country": "MX",
    "name": "Cosoltepec",
    "fullName": null,
    "lat": 18.13942,
    "lng": -97.80552,
    "tz": "America/Mexico_City"
  },
  {
    "id": 8582494,
    "parentId": 3522509,
    "country": "MX",
    "name": "Cuilápam de Guerrero",
    "fullName": null,
    "lat": 17.00391,
    "lng": -96.78173,
    "tz": "America/Mexico_City"
  },
  {
    "id": 8582495,
    "parentId": 3522509,
    "country": "MX",
    "name": "Cuyamecalco Villa de Zaragoza",
    "fullName": null,
    "lat": 17.96703,
    "lng": -96.83944,
    "tz": "America/Mexico_City"
  },
  {
    "id": 8582481,
    "parentId": 3522509,
    "country": "MX",
    "name": "El Barrio de la Soledad",
    "fullName": null,
    "lat": 16.80131,
    "lng": -95.03909,
    "tz": "America/Mexico_City"
  },
  {
    "id": 8582501,
    "parentId": 3522509,
    "country": "MX",
    "name": "El Espinal",
    "fullName": null,
    "lat": 16.46751,
    "lng": -95.04198,
    "tz": "America/Mexico_City"
  },
  {
    "id": 8582500,
    "parentId": 3522509,
    "country": "MX",
    "name": "Eloxochitlán de Flores Magón",
    "fullName": null,
    "lat": 18.18584,
    "lng": -96.87721,
    "tz": "America/Mexico_City"
  },
  {
    "id": 8582503,
    "parentId": 3522509,
    "country": "MX",
    "name": "Fresnillo de Trujano",
    "fullName": null,
    "lat": 17.92505,
    "lng": -98.13278,
    "tz": "America/Mexico_City"
  },
  {
    "id": 8582505,
    "parentId": 3522509,
    "country": "MX",
    "name": "Guadalupe de Ramírez",
    "fullName": null,
    "lat": 17.75445,
    "lng": -98.1643,
    "tz": "America/Mexico_City"
  },
  {
    "id": 8582504,
    "parentId": 3522509,
    "country": "MX",
    "name": "Guadalupe Etla",
    "fullName": null,
    "lat": 17.17907,
    "lng": -96.7975,
    "tz": "America/Mexico_City"
  },
  {
    "id": 8582506,
    "parentId": 3522509,
    "country": "MX",
    "name": "Guelatao de Juárez",
    "fullName": null,
    "lat": 17.31479,
    "lng": -96.50014,
    "tz": "America/Mexico_City"
  },
  {
    "id": 8582507,
    "parentId": 3522509,
    "country": "MX",
    "name": "Guevea de Humboldt",
    "fullName": null,
    "lat": 16.81078,
    "lng": -95.39203,
    "tz": "America/Mexico_City"
  },
  {
    "id": 8582499,
    "parentId": 3522509,
    "country": "MX",
    "name": "Heroica Ciudad de Ejutla de Crespo",
    "fullName": null,
    "lat": 16.57835,
    "lng": -96.73079,
    "tz": "America/Mexico_City"
  },
  {
    "id": 8582510,
    "parentId": 3522509,
    "country": "MX",
    "name": "Heroica Ciudad de Huajuapan de León",
    "fullName": null,
    "lat": 17.82307,
    "lng": -97.78635,
    "tz": "America/Mexico_City"
  },
  {
    "id": 8582514,
    "parentId": 3522509,
    "country": "MX",
    "name": "Heroica Ciudad de Juchitán de Zaragoza",
    "fullName": null,
    "lat": 16.44873,
    "lng": -94.98619,
    "tz": "America/Mexico_City"
  },
  {
    "id": 8582872,
    "parentId": 3522509,
    "country": "MX",
    "name": "Heroica Ciudad de Tlaxiaco",
    "fullName": null,
    "lat": 17.20767,
    "lng": -97.67977,
    "tz": "America/Mexico_City"
  },
  {
    "id": 8583025,
    "parentId": 3522509,
    "country": "MX",
    "name": "Heroica Villa Tezoatlán de Segura y Luna, Cuna de la Independencia de Oaxaca",
    "fullName": null,
    "lat": 17.59159,
    "lng": -97.84606,
    "tz": "America/Mexico_City"
  },
  {
    "id": 8582511,
    "parentId": 3522509,
    "country": "MX",
    "name": "Huautepec",
    "fullName": null,
    "lat": 18.08382,
    "lng": -96.79404,
    "tz": "America/Mexico_City"
  },
  {
    "id": 8582512,
    "parentId": 3522509,
    "country": "MX",
    "name": "Huautla de Jiménez",
    "fullName": null,
    "lat": 18.14518,
    "lng": -96.8035,
    "tz": "America/Mexico_City"
  },
  {
    "id": 8582536,
    "parentId": 3522509,
    "country": "MX",
    "name": "Ixpantepec Nieves",
    "fullName": null,
    "lat": 17.50552,
    "lng": -98.03664,
    "tz": "America/Mexico_City"
  },
  {
    "id": 8582513,
    "parentId": 3522509,
    "country": "MX",
    "name": "Ixtlán de Juárez",
    "fullName": null,
    "lat": 17.49468,
    "lng": -96.33925,
    "tz": "America/Mexico_City"
  },
  {
    "id": 8582488,
    "parentId": 3522509,
    "country": "MX",
    "name": "La Compañía",
    "fullName": null,
    "lat": 16.57368,
    "lng": -96.83838,
    "tz": "America/Mexico_City"
  },
  {
    "id": 8582540,
    "parentId": 3522509,
    "country": "MX",
    "name": "La Pe",
    "fullName": null,
    "lat": 16.61833,
    "lng": -96.78931,
    "tz": "America/Mexico_City"
  },
  {
    "id": 8582547,
    "parentId": 3522509,
    "country": "MX",
    "name": "La Reforma",
    "fullName": null,
    "lat": 16.65776,
    "lng": -97.86005,
    "tz": "America/Mexico_City"
  },
  {
    "id": 8583032,
    "parentId": 3522509,
    "country": "MX",
    "name": "La Trinidad Vista Hermosa",
    "fullName": null,
    "lat": 17.77028,
    "lng": -97.50222,
    "tz": "America/Mexico_City"
  },
  {
    "id": 8582515,
    "parentId": 3522509,
    "country": "MX",
    "name": "Loma Bonita",
    "fullName": null,
    "lat": 18.0188,
    "lng": -95.88829,
    "tz": "America/Mexico_City"
  },
  {
    "id": 8582516,
    "parentId": 3522509,
    "country": "MX",
    "name": "Magdalena Apasco",
    "fullName": null,
    "lat": 17.23556,
    "lng": -96.82469,
    "tz": "America/Mexico_City"
  },
  {
    "id": 8582517,
    "parentId": 3522509,
    "country": "MX",
    "name": "Magdalena Jaltepec",
    "fullName": null,
    "lat": 17.2896,
    "lng": -97.22669,
    "tz": "America/Mexico_City"
  },
  {
    "id": 8582519,
    "parentId": 3522509,
    "country": "MX",
    "name": "Magdalena Mixtepec",
    "fullName": null,
    "lat": 16.89053,
    "lng": -96.91722,
    "tz": "America/Mexico_City"
  },
  {
    "id": 8582520,
    "parentId": 3522509,
    "country": "MX",
    "name": "Magdalena Ocotlán",
    "fullName": null,
    "lat": 16.70889,
    "lng": -96.71176,
    "tz": "America/Mexico_City"
  },
  {
    "id": 8582521,
    "parentId": 3522509,
    "country": "MX",
    "name": "Magdalena Peñasco",
    "fullName": null,
    "lat": 17.23831,
    "lng": -97.5614,
    "tz": "America/Mexico_City"
  },
  {
    "id": 8582522,
    "parentId": 3522509,
    "country": "MX",
    "name": "Magdalena Teitipac",
    "fullName": null,
    "lat": 16.90231,
    "lng": -96.56176,
    "tz": "America/Mexico_City"
  },
  {
    "id": 8582523,
    "parentId": 3522509,
    "country": "MX",
    "name": "Magdalena Tequisistlán",
    "fullName": null,
    "lat": 16.40497,
    "lng": -95.62065,
    "tz": "America/Mexico_City"
  },
  {
    "id": 8582524,
    "parentId": 3522509,
    "country": "MX",
    "name": "Magdalena Tlacotepec",
    "fullName": null,
    "lat": 16.50898,
    "lng": -95.20102,
    "tz": "America/Mexico_City"
  },
  {
    "id": 8583038,
    "parentId": 3522509,
    "country": "MX",
    "name": "Magdalena Yodocono de Porfirio Díaz",
    "fullName": null,
    "lat": 17.37528,
    "lng": -97.37019,
    "tz": "America/Mexico_City"
  },
  {
    "id": 8582525,
    "parentId": 3522509,
    "country": "MX",
    "name": "Magdalena Zahuatlán",
    "fullName": null,
    "lat": 17.39139,
    "lng": -97.22708,
    "tz": "America/Mexico_City"
  },
  {
    "id": 8582526,
    "parentId": 3522509,
    "country": "MX",
    "name": "Mariscala de Juárez",
    "fullName": null,
    "lat": 17.84782,
    "lng": -98.1362,
    "tz": "America/Mexico_City"
  },
  {
    "id": 8582527,
    "parentId": 3522509,
    "country": "MX",
    "name": "Mártires de Tacubaya",
    "fullName": null,
    "lat": 16.54618,
    "lng": -98.24174,
    "tz": "America/Mexico_City"
  },
  {
    "id": 8582528,
    "parentId": 3522509,
    "country": "MX",
    "name": "Matías Romero Avendaño",
    "fullName": null,
    "lat": 17.20162,
    "lng": -95.0217,
    "tz": "America/Mexico_City"
  },
  {
    "id": 8582529,
    "parentId": 3522509,
    "country": "MX",
    "name": "Mazatlán Villa de Flores",
    "fullName": null,
    "lat": 18.03498,
    "lng": -96.92221,
    "tz": "America/Mexico_City"
  },
  {
    "id": 8582508,
    "parentId": 3522509,
    "country": "MX",
    "name": "Mesones Hidalgo",
    "fullName": null,
    "lat": 16.92208,
    "lng": -97.99765,
    "tz": "America/Mexico_City"
  },
  {
    "id": 8582530,
    "parentId": 3522509,
    "country": "MX",
    "name": "Miahuatlán de Porfirio Díaz",
    "fullName": null,
    "lat": 16.34489,
    "lng": -96.61229,
    "tz": "America/Mexico_City"
  },
  {
    "id": 8582531,
    "parentId": 3522509,
    "country": "MX",
    "name": "Mixistlán de la Reforma",
    "fullName": null,
    "lat": 17.14669,
    "lng": -96.10669,
    "tz": "America/Mexico_City"
  },
  {
    "id": 8582532,
    "parentId": 3522509,
    "country": "MX",
    "name": "Monjas",
    "fullName": null,
    "lat": 16.39363,
    "lng": -96.63406,
    "tz": "America/Mexico_City"
  },
  {
    "id": 8582533,
    "parentId": 3522509,
    "country": "MX",
    "name": "Natividad",
    "fullName": null,
    "lat": 17.29639,
    "lng": -96.43194,
    "tz": "America/Mexico_City"
  },
  {
    "id": 8582534,
    "parentId": 3522509,
    "country": "MX",
    "name": "Nazareno Etla",
    "fullName": null,
    "lat": 17.17667,
    "lng": -96.83264,
    "tz": "America/Mexico_City"
  },
  {
    "id": 8582535,
    "parentId": 3522509,
    "country": "MX",
    "name": "Nejapa de Madero",
    "fullName": null,
    "lat": 16.56317,
    "lng": -95.99305,
    "tz": "America/Mexico_City"
  },
  {
    "id": 8582979,
    "parentId": 3522509,
    "country": "MX",
    "name": "Nuevo Zoquiápam",
    "fullName": null,
    "lat": 17.28361,
    "lng": -96.62153,
    "tz": "America/Mexico_City"
  },
  {
    "id": 8582538,
    "parentId": 3522509,
    "country": "MX",
    "name": "Oaxaca de Juárez",
    "fullName": null,
    "lat": 17.11345,
    "lng": -96.73556,
    "tz": "America/Mexico_City"
  },
  {
    "id": 8582539,
    "parentId": 3522509,
    "country": "MX",
    "name": "Ocotlán de Morelos",
    "fullName": null,
    "lat": 16.78148,
    "lng": -96.67398,
    "tz": "America/Mexico_City"
  },
  {
    "id": 8582541,
    "parentId": 3522509,
    "country": "MX",
    "name": "Pinotepa de Don Luis",
    "fullName": null,
    "lat": 16.40531,
    "lng": -97.96684,
    "tz": "America/Mexico_City"
  },
  {
    "id": 8582542,
    "parentId": 3522509,
    "country": "MX",
    "name": "Pluma Hidalgo",
    "fullName": null,
    "lat": 15.92127,
    "lng": -96.42977,
    "tz": "America/Mexico_City"
  },
  {
    "id": 8582544,
    "parentId": 3522509,
    "country": "MX",
    "name": "Putla Villa de Guerrero",
    "fullName": null,
    "lat": 17.02733,
    "lng": -97.87028,
    "tz": "America/Mexico_City"
  },
  {
    "id": 8582546,
    "parentId": 3522509,
    "country": "MX",
    "name": "Reforma de Pineda",
    "fullName": null,
    "lat": 16.39989,
    "lng": -94.451,
    "tz": "America/Mexico_City"
  },
  {
    "id": 8582548,
    "parentId": 3522509,
    "country": "MX",
    "name": "Reyes Etla",
    "fullName": null,
    "lat": 17.21451,
    "lng": -96.81507,
    "tz": "America/Mexico_City"
  },
  {
    "id": 8582549,
    "parentId": 3522509,
    "country": "MX",
    "name": "Rojas de Cuauhtémoc",
    "fullName": null,
    "lat": 17.00861,
    "lng": -96.61944,
    "tz": "America/Mexico_City"
  },
  {
    "id": 8582550,
    "parentId": 3522509,
    "country": "MX",
    "name": "Salina Cruz",
    "fullName": null,
    "lat": 16.1949,
    "lng": -95.21515,
    "tz": "America/Mexico_City"
  },
  {
    "id": 8582551,
    "parentId": 3522509,
    "country": "MX",
    "name": "San Agustín Amatengo",
    "fullName": null,
    "lat": 16.51542,
    "lng": -96.78931,
    "tz": "America/Mexico_City"
  },
  {
    "id": 8582552,
    "parentId": 3522509,
    "country": "MX",
    "name": "San Agustín Atenango",
    "fullName": null,
    "lat": 17.59886,
    "lng": -97.99889,
    "tz": "America/Mexico_City"
  },
  {
    "id": 8582553,
    "parentId": 3522509,
    "country": "MX",
    "name": "San Agustín Chayuco",
    "fullName": null,
    "lat": 16.44207,
    "lng": -97.82645,
    "tz": "America/Mexico_City"
  },
  {
    "id": 8582554,
    "parentId": 3522509,
    "country": "MX",
    "name": "San Agustín de las Juntas",
    "fullName": null,
    "lat": 17.0073,
    "lng": -96.70484,
    "tz": "America/Mexico_City"
  },
  {
    "id": 8582555,
    "parentId": 3522509,
    "country": "MX",
    "name": "San Agustín Etla",
    "fullName": null,
    "lat": 17.18659,
    "lng": -96.75825,
    "tz": "America/Mexico_City"
  },
  {
    "id": 8582556,
    "parentId": 3522509,
    "country": "MX",
    "name": "San Agustín Loxicha",
    "fullName": null,
    "lat": 15.97926,
    "lng": -96.62173,
    "tz": "America/Mexico_City"
  },
  {
    "id": 8582557,
    "parentId": 3522509,
    "country": "MX",
    "name": "San Agustín Tlacotepec",
    "fullName": null,
    "lat": 17.20927,
    "lng": -97.51356,
    "tz": "America/Mexico_City"
  },
  {
    "id": 8582558,
    "parentId": 3522509,
    "country": "MX",
    "name": "San Agustín Yatareni",
    "fullName": null,
    "lat": 17.08635,
    "lng": -96.67845,
    "tz": "America/Mexico_City"
  },
  {
    "id": 8582559,
    "parentId": 3522509,
    "country": "MX",
    "name": "San Andrés Cabecera Nueva",
    "fullName": null,
    "lat": 16.85982,
    "lng": -97.75695,
    "tz": "America/Mexico_City"
  },
  {
    "id": 8582560,
    "parentId": 3522509,
    "country": "MX",
    "name": "San Andrés Dinicuiti",
    "fullName": null,
    "lat": 17.69633,
    "lng": -97.69433,
    "tz": "America/Mexico_City"
  },
  {
    "id": 8582561,
    "parentId": 3522509,
    "country": "MX",
    "name": "San Andrés Huaxpaltepec",
    "fullName": null,
    "lat": 16.33081,
    "lng": -97.9053,
    "tz": "America/Mexico_City"
  },
  {
    "id": 8582562,
    "parentId": 3522509,
    "country": "MX",
    "name": "San Andrés Huayápam",
    "fullName": null,
    "lat": 17.09981,
    "lng": -96.66832,
    "tz": "America/Mexico_City"
  },
  {
    "id": 8582563,
    "parentId": 3522509,
    "country": "MX",
    "name": "San Andrés Ixtlahuaca",
    "fullName": null,
    "lat": 17.06979,
    "lng": -96.84139,
    "tz": "America/Mexico_City"
  },
  {
    "id": 8582564,
    "parentId": 3522509,
    "country": "MX",
    "name": "San Andrés Lagunas",
    "fullName": null,
    "lat": 17.57344,
    "lng": -97.52283,
    "tz": "America/Mexico_City"
  },
  {
    "id": 8582565,
    "parentId": 3522509,
    "country": "MX",
    "name": "San Andrés Nuxiño",
    "fullName": null,
    "lat": 17.2349,
    "lng": -97.06851,
    "tz": "America/Mexico_City"
  },
  {
    "id": 8582566,
    "parentId": 3522509,
    "country": "MX",
    "name": "San Andrés Paxtlán",
    "fullName": null,
    "lat": 16.20938,
    "lng": -96.52537,
    "tz": "America/Mexico_City"
  },
  {
    "id": 8582567,
    "parentId": 3522509,
    "country": "MX",
    "name": "San Andrés Sinaxtla",
    "fullName": null,
    "lat": 17.48541,
    "lng": -97.27335,
    "tz": "America/Mexico_City"
  },
  {
    "id": 8582568,
    "parentId": 3522509,
    "country": "MX",
    "name": "San Andrés Solaga",
    "fullName": null,
    "lat": 17.27042,
    "lng": -96.22667,
    "tz": "America/Mexico_City"
  },
  {
    "id": 8582569,
    "parentId": 3522509,
    "country": "MX",
    "name": "San Andrés Teotilálpam",
    "fullName": null,
    "lat": 17.94684,
    "lng": -96.61798,
    "tz": "America/Mexico_City"
  },
  {
    "id": 8582570,
    "parentId": 3522509,
    "country": "MX",
    "name": "San Andrés Tepetlapa",
    "fullName": null,
    "lat": 17.66292,
    "lng": -98.38944,
    "tz": "America/Mexico_City"
  },
  {
    "id": 8582571,
    "parentId": 3522509,
    "country": "MX",
    "name": "San Andrés Yaá",
    "fullName": null,
    "lat": 17.2938,
    "lng": -96.1488,
    "tz": "America/Mexico_City"
  },
  {
    "id": 8582572,
    "parentId": 3522509,
    "country": "MX",
    "name": "San Andrés Zabache",
    "fullName": null,
    "lat": 16.59917,
    "lng": -96.85889,
    "tz": "America/Mexico_City"
  },
  {
    "id": 8582573,
    "parentId": 3522509,
    "country": "MX",
    "name": "San Andrés Zautla",
    "fullName": null,
    "lat": 17.18961,
    "lng": -96.8573,
    "tz": "America/Mexico_City"
  },
  {
    "id": 8582574,
    "parentId": 3522509,
    "country": "MX",
    "name": "San Antonino Castillo Velasco",
    "fullName": null,
    "lat": 16.809,
    "lng": -96.69267,
    "tz": "America/Mexico_City"
  },
  {
    "id": 8582575,
    "parentId": 3522509,
    "country": "MX",
    "name": "San Antonino el Alto",
    "fullName": null,
    "lat": 16.81984,
    "lng": -97.02719,
    "tz": "America/Mexico_City"
  },
  {
    "id": 8582576,
    "parentId": 3522509,
    "country": "MX",
    "name": "San Antonino Monte Verde",
    "fullName": null,
    "lat": 17.51869,
    "lng": -97.72654,
    "tz": "America/Mexico_City"
  },
  {
    "id": 8582577,
    "parentId": 3522509,
    "country": "MX",
    "name": "San Antonio Acutla",
    "fullName": null,
    "lat": 17.74463,
    "lng": -97.49801,
    "tz": "America/Mexico_City"
  },
  {
    "id": 8582578,
    "parentId": 3522509,
    "country": "MX",
    "name": "San Antonio de la Cal",
    "fullName": null,
    "lat": 17.03092,
    "lng": -96.69714,
    "tz": "America/Mexico_City"
  },
  {
    "id": 8582579,
    "parentId": 3522509,
    "country": "MX",
    "name": "San Antonio Huitepec",
    "fullName": null,
    "lat": 16.9214,
    "lng": -97.13504,
    "tz": "America/Mexico_City"
  },
  {
    "id": 8582580,
    "parentId": 3522509,
    "country": "MX",
    "name": "San Antonio Nanahuatípam",
    "fullName": null,
    "lat": 18.14319,
    "lng": -97.13181,
    "tz": "America/Mexico_City"
  },
  {
    "id": 8582581,
    "parentId": 3522509,
    "country": "MX",
    "name": "San Antonio Sinicahua",
    "fullName": null,
    "lat": 17.15319,
    "lng": -97.57725,
    "tz": "America/Mexico_City"
  },
  {
    "id": 8582582,
    "parentId": 3522509,
    "country": "MX",
    "name": "San Antonio Tepetlapa",
    "fullName": null,
    "lat": 16.53215,
    "lng": -98.06618,
    "tz": "America/Mexico_City"
  },
  {
    "id": 8582583,
    "parentId": 3522509,
    "country": "MX",
    "name": "San Baltazar Chichicápam",
    "fullName": null,
    "lat": 16.76491,
    "lng": -96.48648,
    "tz": "America/Mexico_City"
  },
  {
    "id": 8582584,
    "parentId": 3522509,
    "country": "MX",
    "name": "San Baltazar Loxicha",
    "fullName": null,
    "lat": 16.01429,
    "lng": -96.79696,
    "tz": "America/Mexico_City"
  },
  {
    "id": 8582585,
    "parentId": 3522509,
    "country": "MX",
    "name": "San Baltazar Yatzachi el Bajo",
    "fullName": null,
    "lat": 17.22958,
    "lng": -96.22046,
    "tz": "America/Mexico_City"
  },
  {
    "id": 8582586,
    "parentId": 3522509,
    "country": "MX",
    "name": "San Bartolo Coyotepec",
    "fullName": null,
    "lat": 16.94877,
    "lng": -96.70977,
    "tz": "America/Mexico_City"
  },
  {
    "id": 8582592,
    "parentId": 3522509,
    "country": "MX",
    "name": "San Bartolo Soyaltepec",
    "fullName": null,
    "lat": 17.58563,
    "lng": -97.30622,
    "tz": "America/Mexico_City"
  },
  {
    "id": 8582593,
    "parentId": 3522509,
    "country": "MX",
    "name": "San Bartolo Yautepec",
    "fullName": null,
    "lat": 16.43222,
    "lng": -95.94493,
    "tz": "America/Mexico_City"
  },
  {
    "id": 8582587,
    "parentId": 3522509,
    "country": "MX",
    "name": "San Bartolomé Ayautla",
    "fullName": null,
    "lat": 18.03758,
    "lng": -96.67442,
    "tz": "America/Mexico_City"
  },
  {
    "id": 8582588,
    "parentId": 3522509,
    "country": "MX",
    "name": "San Bartolomé Loxicha",
    "fullName": null,
    "lat": 15.93974,
    "lng": -96.74637,
    "tz": "America/Mexico_City"
  },
  {
    "id": 8582589,
    "parentId": 3522509,
    "country": "MX",
    "name": "San Bartolomé Quialana",
    "fullName": null,
    "lat": 16.90094,
    "lng": -96.49994,
    "tz": "America/Mexico_City"
  },
  {
    "id": 8582590,
    "parentId": 3522509,
    "country": "MX",
    "name": "San Bartolomé Yucuañe",
    "fullName": null,
    "lat": 17.23078,
    "lng": -97.45194,
    "tz": "America/Mexico_City"
  },
  {
    "id": 8582591,
    "parentId": 3522509,
    "country": "MX",
    "name": "San Bartolomé Zoogocho",
    "fullName": null,
    "lat": 17.23861,
    "lng": -96.24167,
    "tz": "America/Mexico_City"
  },
  {
    "id": 8582594,
    "parentId": 3522509,
    "country": "MX",
    "name": "San Bernardo Mixtepec",
    "fullName": null,
    "lat": 16.84321,
    "lng": -96.90571,
    "tz": "America/Mexico_City"
  },
  {
    "id": 8582595,
    "parentId": 3522509,
    "country": "MX",
    "name": "San Blas Atempa",
    "fullName": null,
    "lat": 16.3464,
    "lng": -95.16384,
    "tz": "America/Mexico_City"
  },
  {
    "id": 8582596,
    "parentId": 3522509,
    "country": "MX",
    "name": "San Carlos Yautepec",
    "fullName": null,
    "lat": 16.42072,
    "lng": -96.0906,
    "tz": "America/Mexico_City"
  },
  {
    "id": 8582597,
    "parentId": 3522509,
    "country": "MX",
    "name": "San Cristóbal Amatlán",
    "fullName": null,
    "lat": 16.31045,
    "lng": -96.38299,
    "tz": "America/Mexico_City"
  },
  {
    "id": 8582598,
    "parentId": 3522509,
    "country": "MX",
    "name": "San Cristóbal Amoltepec",
    "fullName": null,
    "lat": 17.28655,
    "lng": -97.57885,
    "tz": "America/Mexico_City"
  },
  {
    "id": 8582599,
    "parentId": 3522509,
    "country": "MX",
    "name": "San Cristóbal Lachirioag",
    "fullName": null,
    "lat": 17.33861,
    "lng": -96.16444,
    "tz": "America/Mexico_City"
  },
  {
    "id": 8582600,
    "parentId": 3522509,
    "country": "MX",
    "name": "San Cristóbal Suchixtlahuaca",
    "fullName": null,
    "lat": 17.72809,
    "lng": -97.37038,
    "tz": "America/Mexico_City"
  },
  {
    "id": 8582602,
    "parentId": 3522509,
    "country": "MX",
    "name": "San Dionisio del Mar",
    "fullName": null,
    "lat": 16.32786,
    "lng": -94.75103,
    "tz": "America/Mexico_City"
  },
  {
    "id": 8582603,
    "parentId": 3522509,
    "country": "MX",
    "name": "San Dionisio Ocotepec",
    "fullName": null,
    "lat": 16.76984,
    "lng": -96.36972,
    "tz": "America/Mexico_City"
  },
  {
    "id": 8582604,
    "parentId": 3522509,
    "country": "MX",
    "name": "San Dionisio Ocotlán",
    "fullName": null,
    "lat": 16.74489,
    "lng": -96.66511,
    "tz": "America/Mexico_City"
  },
  {
    "id": 8582605,
    "parentId": 3522509,
    "country": "MX",
    "name": "San Esteban Atatlahuca",
    "fullName": null,
    "lat": 17.07585,
    "lng": -97.69096,
    "tz": "America/Mexico_City"
  },
  {
    "id": 8582606,
    "parentId": 3522509,
    "country": "MX",
    "name": "San Felipe Jalapa de Díaz",
    "fullName": null,
    "lat": 18.0778,
    "lng": -96.52476,
    "tz": "America/Mexico_City"
  },
  {
    "id": 8582607,
    "parentId": 3522509,
    "country": "MX",
    "name": "San Felipe Tejalápam",
    "fullName": null,
    "lat": 17.09684,
    "lng": -96.86448,
    "tz": "America/Mexico_City"
  },
  {
    "id": 8582608,
    "parentId": 3522509,
    "country": "MX",
    "name": "San Felipe Usila",
    "fullName": null,
    "lat": 17.88964,
    "lng": -96.48801,
    "tz": "America/Mexico_City"
  },
  {
    "id": 8582609,
    "parentId": 3522509,
    "country": "MX",
    "name": "San Francisco Cahuacuá",
    "fullName": null,
    "lat": 16.88061,
    "lng": -97.34685,
    "tz": "America/Mexico_City"
  },
  {
    "id": 8582610,
    "parentId": 3522509,
    "country": "MX",
    "name": "San Francisco Cajonos",
    "fullName": null,
    "lat": 17.18086,
    "lng": -96.26465,
    "tz": "America/Mexico_City"
  },
  {
    "id": 8582611,
    "parentId": 3522509,
    "country": "MX",
    "name": "San Francisco Chapulapa",
    "fullName": null,
    "lat": 17.92542,
    "lng": -96.74948,
    "tz": "America/Mexico_City"
  },
  {
    "id": 8582612,
    "parentId": 3522509,
    "country": "MX",
    "name": "San Francisco Chindúa",
    "fullName": null,
    "lat": 17.42602,
    "lng": -97.30704,
    "tz": "America/Mexico_City"
  },
  {
    "id": 8582613,
    "parentId": 3522509,
    "country": "MX",
    "name": "San Francisco del Mar",
    "fullName": null,
    "lat": 16.207,
    "lng": -94.55198,
    "tz": "America/Mexico_City"
  },
  {
    "id": 8582614,
    "parentId": 3522509,
    "country": "MX",
    "name": "San Francisco Huehuetlán",
    "fullName": null,
    "lat": 18.19839,
    "lng": -96.93772,
    "tz": "America/Mexico_City"
  },
  {
    "id": 8582615,
    "parentId": 3522509,
    "country": "MX",
    "name": "San Francisco Ixhuatán",
    "fullName": null,
    "lat": 16.31382,
    "lng": -94.47711,
    "tz": "America/Mexico_City"
  },
  {
    "id": 8582616,
    "parentId": 3522509,
    "country": "MX",
    "name": "San Francisco Jaltepetongo",
    "fullName": null,
    "lat": 17.34929,
    "lng": -97.27704,
    "tz": "America/Mexico_City"
  },
  {
    "id": 8582617,
    "parentId": 3522509,
    "country": "MX",
    "name": "San Francisco Lachigoló",
    "fullName": null,
    "lat": 17.02505,
    "lng": -96.59963,
    "tz": "America/Mexico_City"
  },
  {
    "id": 8582618,
    "parentId": 3522509,
    "country": "MX",
    "name": "San Francisco Logueche",
    "fullName": null,
    "lat": 16.37576,
    "lng": -96.37907,
    "tz": "America/Mexico_City"
  },
  {
    "id": 8582619,
    "parentId": 3522509,
    "country": "MX",
    "name": "San Francisco Nuxaño",
    "fullName": null,
    "lat": 17.37465,
    "lng": -97.33882,
    "tz": "America/Mexico_City"
  },
  {
    "id": 8582620,
    "parentId": 3522509,
    "country": "MX",
    "name": "San Francisco Ozolotepec",
    "fullName": null,
    "lat": 16.08889,
    "lng": -96.20407,
    "tz": "America/Mexico_City"
  },
  {
    "id": 8582621,
    "parentId": 3522509,
    "country": "MX",
    "name": "San Francisco Sola",
    "fullName": null,
    "lat": 16.52122,
    "lng": -96.94347,
    "tz": "America/Mexico_City"
  },
  {
    "id": 8582622,
    "parentId": 3522509,
    "country": "MX",
    "name": "San Francisco Telixtlahuaca",
    "fullName": null,
    "lat": 17.37723,
    "lng": -96.93906,
    "tz": "America/Mexico_City"
  },
  {
    "id": 8582623,
    "parentId": 3522509,
    "country": "MX",
    "name": "San Francisco Teopan",
    "fullName": null,
    "lat": 17.85536,
    "lng": -97.50937,
    "tz": "America/Mexico_City"
  },
  {
    "id": 8582624,
    "parentId": 3522509,
    "country": "MX",
    "name": "San Francisco Tlapancingo",
    "fullName": null,
    "lat": 17.47829,
    "lng": -98.28298,
    "tz": "America/Mexico_City"
  },
  {
    "id": 8582625,
    "parentId": 3522509,
    "country": "MX",
    "name": "San Gabriel Mixtepec",
    "fullName": null,
    "lat": 16.06993,
    "lng": -97.07572,
    "tz": "America/Mexico_City"
  },
  {
    "id": 8582626,
    "parentId": 3522509,
    "country": "MX",
    "name": "San Ildefonso Amatlán",
    "fullName": null,
    "lat": 16.28885,
    "lng": -96.4524,
    "tz": "America/Mexico_City"
  },
  {
    "id": 8582627,
    "parentId": 3522509,
    "country": "MX",
    "name": "San Ildefonso Sola",
    "fullName": null,
    "lat": 16.55974,
    "lng": -96.9706,
    "tz": "America/Mexico_City"
  },
  {
    "id": 8582628,
    "parentId": 3522509,
    "country": "MX",
    "name": "San Ildefonso Villa Alta",
    "fullName": null,
    "lat": 17.3725,
    "lng": -96.10688,
    "tz": "America/Mexico_City"
  },
  {
    "id": 8582629,
    "parentId": 3522509,
    "country": "MX",
    "name": "San Jacinto Amilpas",
    "fullName": null,
    "lat": 17.10056,
    "lng": -96.7625,
    "tz": "America/Mexico_City"
  },
  {
    "id": 8582630,
    "parentId": 3522509,
    "country": "MX",
    "name": "San Jacinto Tlacotepec",
    "fullName": null,
    "lat": 16.51993,
    "lng": -97.37252,
    "tz": "America/Mexico_City"
  },
  {
    "id": 8582631,
    "parentId": 3522509,
    "country": "MX",
    "name": "San Jerónimo Coatlán",
    "fullName": null,
    "lat": 16.18341,
    "lng": -96.97806,
    "tz": "America/Mexico_City"
  },
  {
    "id": 8582632,
    "parentId": 3522509,
    "country": "MX",
    "name": "San Jerónimo Silacayoapilla",
    "fullName": null,
    "lat": 17.8125,
    "lng": -97.84833,
    "tz": "America/Mexico_City"
  },
  {
    "id": 8582633,
    "parentId": 3522509,
    "country": "MX",
    "name": "San Jerónimo Sosola",
    "fullName": null,
    "lat": 17.39288,
    "lng": -97.04291,
    "tz": "America/Mexico_City"
  },
  {
    "id": 8582634,
    "parentId": 3522509,
    "country": "MX",
    "name": "San Jerónimo Taviche",
    "fullName": null,
    "lat": 16.70861,
    "lng": -96.59091,
    "tz": "America/Mexico_City"
  },
  {
    "id": 8582635,
    "parentId": 3522509,
    "country": "MX",
    "name": "San Jerónimo Tecóatl",
    "fullName": null,
    "lat": 18.15548,
    "lng": -96.91611,
    "tz": "America/Mexico_City"
  },
  {
    "id": 8583026,
    "parentId": 3522509,
    "country": "MX",
    "name": "San Jerónimo Tlacochahuaya",
    "fullName": null,
    "lat": 17.00843,
    "lng": -96.55522,
    "tz": "America/Mexico_City"
  },
  {
    "id": 8582636,
    "parentId": 3522509,
    "country": "MX",
    "name": "San Jorge Nuchita",
    "fullName": null,
    "lat": 17.65921,
    "lng": -98.10153,
    "tz": "America/Mexico_City"
  },
  {
    "id": 8582637,
    "parentId": 3522509,
    "country": "MX",
    "name": "San José Ayuquila",
    "fullName": null,
    "lat": 17.94282,
    "lng": -97.96764,
    "tz": "America/Mexico_City"
  },
  {
    "id": 8582638,
    "parentId": 3522509,
    "country": "MX",
    "name": "San José Chiltepec",
    "fullName": null,
    "lat": 17.95301,
    "lng": -96.15507,
    "tz": "America/Mexico_City"
  },
  {
    "id": 8582639,
    "parentId": 3522509,
    "country": "MX",
    "name": "San José del Peñasco",
    "fullName": null,
    "lat": 16.28811,
    "lng": -96.49517,
    "tz": "America/Mexico_City"
  },
  {
    "id": 8582543,
    "parentId": 3522509,
    "country": "MX",
    "name": "San José del Progreso",
    "fullName": null,
    "lat": 16.69909,
    "lng": -96.68148,
    "tz": "America/Mexico_City"
  },
  {
    "id": 8582640,
    "parentId": 3522509,
    "country": "MX",
    "name": "San José Estancia Grande",
    "fullName": null,
    "lat": 16.36912,
    "lng": -98.25681,
    "tz": "America/Mexico_City"
  },
  {
    "id": 8582641,
    "parentId": 3522509,
    "country": "MX",
    "name": "San José Independencia",
    "fullName": null,
    "lat": 18.24356,
    "lng": -96.64568,
    "tz": "America/Mexico_City"
  },
  {
    "id": 8582642,
    "parentId": 3522509,
    "country": "MX",
    "name": "San José Lachiguiri",
    "fullName": null,
    "lat": 16.41059,
    "lng": -96.34009,
    "tz": "America/Mexico_City"
  },
  {
    "id": 8582643,
    "parentId": 3522509,
    "country": "MX",
    "name": "San José Tenango",
    "fullName": null,
    "lat": 18.16332,
    "lng": -96.67315,
    "tz": "America/Mexico_City"
  },
  {
    "id": 8582644,
    "parentId": 3522509,
    "country": "MX",
    "name": "San Juan Achiutla",
    "fullName": null,
    "lat": 17.34225,
    "lng": -97.50839,
    "tz": "America/Mexico_City"
  },
  {
    "id": 8582645,
    "parentId": 3522509,
    "country": "MX",
    "name": "San Juan Atepec",
    "fullName": null,
    "lat": 17.43648,
    "lng": -96.52843,
    "tz": "America/Mexico_City"
  },
  {
    "id": 8582647,
    "parentId": 3522509,
    "country": "MX",
    "name": "San Juan Bautista Atatlahuca",
    "fullName": null,
    "lat": 17.57906,
    "lng": -96.80009,
    "tz": "America/Mexico_City"
  },
  {
    "id": 8582648,
    "parentId": 3522509,
    "country": "MX",
    "name": "San Juan Bautista Coixtlahuaca",
    "fullName": null,
    "lat": 17.72873,
    "lng": -97.27017,
    "tz": "America/Mexico_City"
  },
  {
    "id": 8582649,
    "parentId": 3522509,
    "country": "MX",
    "name": "San Juan Bautista Cuicatlán",
    "fullName": null,
    "lat": 17.7255,
    "lng": -96.92219,
    "tz": "America/Mexico_City"
  },
  {
    "id": 8582650,
    "parentId": 3522509,
    "country": "MX",
    "name": "San Juan Bautista Guelache",
    "fullName": null,
    "lat": 17.22033,
    "lng": -96.78147,
    "tz": "America/Mexico_City"
  },
  {
    "id": 8582652,
    "parentId": 3522509,
    "country": "MX",
    "name": "San Juan Bautista Jayacatlán",
    "fullName": null,
    "lat": 17.42458,
    "lng": -96.82639,
    "tz": "America/Mexico_City"
  },
  {
    "id": 8582653,
    "parentId": 3522509,
    "country": "MX",
    "name": "San Juan Bautista Lo de Soto",
    "fullName": null,
    "lat": 16.51144,
    "lng": -98.3362,
    "tz": "America/Mexico_City"
  },
  {
    "id": 8582654,
    "parentId": 3522509,
    "country": "MX",
    "name": "San Juan Bautista Suchitepec",
    "fullName": null,
    "lat": 17.975,
    "lng": -97.66508,
    "tz": "America/Mexico_City"
  },
  {
    "id": 8582656,
    "parentId": 3522509,
    "country": "MX",
    "name": "San Juan Bautista Tlachichilco",
    "fullName": null,
    "lat": 17.58557,
    "lng": -98.35128,
    "tz": "America/Mexico_City"
  },
  {
    "id": 8582655,
    "parentId": 3522509,
    "country": "MX",
    "name": "San Juan Bautista Tlacoatzintepec",
    "fullName": null,
    "lat": 17.88046,
    "lng": -96.58815,
    "tz": "America/Mexico_City"
  },
  {
    "id": 8582657,
    "parentId": 3522509,
    "country": "MX",
    "name": "San Juan Bautista Tuxtepec",
    "fullName": null,
    "lat": 18.04141,
    "lng": -96.08871,
    "tz": "America/Mexico_City"
  },
  {
    "id": 8583035,
    "parentId": 3522509,
    "country": "MX",
    "name": "San Juan Bautista Valle Nacional",
    "fullName": null,
    "lat": 17.79581,
    "lng": -96.32398,
    "tz": "America/Mexico_City"
  },
  {
    "id": 8582658,
    "parentId": 3522509,
    "country": "MX",
    "name": "San Juan Cacahuatepec",
    "fullName": null,
    "lat": 16.61981,
    "lng": -98.1639,
    "tz": "America/Mexico_City"
  },
  {
    "id": 8582664,
    "parentId": 3522509,
    "country": "MX",
    "name": "San Juan Chicomezúchil",
    "fullName": null,
    "lat": 17.29792,
    "lng": -96.51144,
    "tz": "America/Mexico_City"
  },
  {
    "id": 8582665,
    "parentId": 3522509,
    "country": "MX",
    "name": "San Juan Chilateca",
    "fullName": null,
    "lat": 16.82806,
    "lng": -96.67028,
    "tz": "America/Mexico_City"
  },
  {
    "id": 8582659,
    "parentId": 3522509,
    "country": "MX",
    "name": "San Juan Cieneguilla",
    "fullName": null,
    "lat": 17.87496,
    "lng": -98.31036,
    "tz": "America/Mexico_City"
  },
  {
    "id": 8582660,
    "parentId": 3522509,
    "country": "MX",
    "name": "San Juan Coatzóspam",
    "fullName": null,
    "lat": 18.04569,
    "lng": -96.75281,
    "tz": "America/Mexico_City"
  },
  {
    "id": 8582661,
    "parentId": 3522509,
    "country": "MX",
    "name": "San Juan Colorado",
    "fullName": null,
    "lat": 16.47032,
    "lng": -97.91523,
    "tz": "America/Mexico_City"
  },
  {
    "id": 8582662,
    "parentId": 3522509,
    "country": "MX",
    "name": "San Juan Comaltepec",
    "fullName": null,
    "lat": 17.31074,
    "lng": -95.94347,
    "tz": "America/Mexico_City"
  },
  {
    "id": 8582663,
    "parentId": 3522509,
    "country": "MX",
    "name": "San Juan Cotzocón",
    "fullName": null,
    "lat": 17.43863,
    "lng": -95.32666,
    "tz": "America/Mexico_City"
  },
  {
    "id": 8582679,
    "parentId": 3522509,
    "country": "MX",
    "name": "San Juan de los Cués",
    "fullName": null,
    "lat": 18.05944,
    "lng": -97.01031,
    "tz": "America/Mexico_City"
  },
  {
    "id": 8582666,
    "parentId": 3522509,
    "country": "MX",
    "name": "San Juan del Estado",
    "fullName": null,
    "lat": 17.28883,
    "lng": -96.79511,
    "tz": "America/Mexico_City"
  },
  {
    "id": 8582667,
    "parentId": 3522509,
    "country": "MX",
    "name": "San Juan del Río",
    "fullName": null,
    "lat": 16.89139,
    "lng": -96.16944,
    "tz": "America/Mexico_City"
  },
  {
    "id": 8582668,
    "parentId": 3522509,
    "country": "MX",
    "name": "San Juan Diuxi",
    "fullName": null,
    "lat": 17.27792,
    "lng": -97.38514,
    "tz": "America/Mexico_City"
  },
  {
    "id": 8582669,
    "parentId": 3522509,
    "country": "MX",
    "name": "San Juan Evangelista Analco",
    "fullName": null,
    "lat": 17.40481,
    "lng": -96.53546,
    "tz": "America/Mexico_City"
  },
  {
    "id": 8582670,
    "parentId": 3522509,
    "country": "MX",
    "name": "San Juan Guelavía",
    "fullName": null,
    "lat": 16.95528,
    "lng": -96.53875,
    "tz": "America/Mexico_City"
  },
  {
    "id": 8582671,
    "parentId": 3522509,
    "country": "MX",
    "name": "San Juan Guichicovi",
    "fullName": null,
    "lat": 17.07339,
    "lng": -95.09109,
    "tz": "America/Mexico_City"
  },
  {
    "id": 8582672,
    "parentId": 3522509,
    "country": "MX",
    "name": "San Juan Ihualtepec",
    "fullName": null,
    "lat": 17.75656,
    "lng": -98.28518,
    "tz": "America/Mexico_City"
  },
  {
    "id": 8582673,
    "parentId": 3522509,
    "country": "MX",
    "name": "San Juan Juquila Mixes",
    "fullName": null,
    "lat": 16.88433,
    "lng": -95.88913,
    "tz": "America/Mexico_City"
  },
  {
    "id": 8582674,
    "parentId": 3522509,
    "country": "MX",
    "name": "San Juan Juquila Vijanos",
    "fullName": null,
    "lat": 17.33734,
    "lng": -96.27421,
    "tz": "America/Mexico_City"
  },
  {
    "id": 8582675,
    "parentId": 3522509,
    "country": "MX",
    "name": "San Juan Lachao",
    "fullName": null,
    "lat": 16.17994,
    "lng": -97.11115,
    "tz": "America/Mexico_City"
  },
  {
    "id": 8582676,
    "parentId": 3522509,
    "country": "MX",
    "name": "San Juan Lachigalla",
    "fullName": null,
    "lat": 16.55594,
    "lng": -96.53855,
    "tz": "America/Mexico_City"
  },
  {
    "id": 8582677,
    "parentId": 3522509,
    "country": "MX",
    "name": "San Juan Lajarcia",
    "fullName": null,
    "lat": 16.4935,
    "lng": -95.90517,
    "tz": "America/Mexico_City"
  },
  {
    "id": 8582678,
    "parentId": 3522509,
    "country": "MX",
    "name": "San Juan Lalana",
    "fullName": null,
    "lat": 17.53232,
    "lng": -95.80926,
    "tz": "America/Mexico_City"
  },
  {
    "id": 8582680,
    "parentId": 3522509,
    "country": "MX",
    "name": "San Juan Mazatlán",
    "fullName": null,
    "lat": 17.20873,
    "lng": -95.31276,
    "tz": "America/Mexico_City"
  },
  {
    "id": 8582681,
    "parentId": 3522509,
    "country": "MX",
    "name": "San Juan Mixtepec -Dto. 08 -",
    "fullName": null,
    "lat": 17.31676,
    "lng": -97.86147,
    "tz": "America/Mexico_City"
  },
  {
    "id": 8582682,
    "parentId": 3522509,
    "country": "MX",
    "name": "San Juan Mixtepec -Dto. 26 -",
    "fullName": null,
    "lat": 16.27667,
    "lng": -96.29917,
    "tz": "America/Mexico_City"
  },
  {
    "id": 8582683,
    "parentId": 3522509,
    "country": "MX",
    "name": "San Juan Ñumí",
    "fullName": null,
    "lat": 17.41488,
    "lng": -97.73619,
    "tz": "America/Mexico_City"
  },
  {
    "id": 8582684,
    "parentId": 3522509,
    "country": "MX",
    "name": "San Juan Ozolotepec",
    "fullName": null,
    "lat": 16.09775,
    "lng": -96.26861,
    "tz": "America/Mexico_City"
  },
  {
    "id": 8582685,
    "parentId": 3522509,
    "country": "MX",
    "name": "San Juan Petlapa",
    "fullName": null,
    "lat": 17.5069,
    "lng": -96.03616,
    "tz": "America/Mexico_City"
  },
  {
    "id": 8582686,
    "parentId": 3522509,
    "country": "MX",
    "name": "San Juan Quiahije",
    "fullName": null,
    "lat": 16.32147,
    "lng": -97.36026,
    "tz": "America/Mexico_City"
  },
  {
    "id": 8582687,
    "parentId": 3522509,
    "country": "MX",
    "name": "San Juan Quiotepec",
    "fullName": null,
    "lat": 17.61243,
    "lng": -96.58025,
    "tz": "America/Mexico_City"
  },
  {
    "id": 8582688,
    "parentId": 3522509,
    "country": "MX",
    "name": "San Juan Sayultepec",
    "fullName": null,
    "lat": 17.44736,
    "lng": -97.29375,
    "tz": "America/Mexico_City"
  },
  {
    "id": 8582689,
    "parentId": 3522509,
    "country": "MX",
    "name": "San Juan Tabaá",
    "fullName": null,
    "lat": 17.30222,
    "lng": -96.21208,
    "tz": "America/Mexico_City"
  },
  {
    "id": 8582690,
    "parentId": 3522509,
    "country": "MX",
    "name": "San Juan Tamazola",
    "fullName": null,
    "lat": 17.11057,
    "lng": -97.12544,
    "tz": "America/Mexico_City"
  },
  {
    "id": 8582691,
    "parentId": 3522509,
    "country": "MX",
    "name": "San Juan Teita",
    "fullName": null,
    "lat": 17.09319,
    "lng": -97.41993,
    "tz": "America/Mexico_City"
  },
  {
    "id": 8582692,
    "parentId": 3522509,
    "country": "MX",
    "name": "San Juan Teitipac",
    "fullName": null,
    "lat": 16.9263,
    "lng": -96.60954,
    "tz": "America/Mexico_City"
  },
  {
    "id": 8582693,
    "parentId": 3522509,
    "country": "MX",
    "name": "San Juan Tepeuxila",
    "fullName": null,
    "lat": 17.75636,
    "lng": -96.75589,
    "tz": "America/Mexico_City"
  },
  {
    "id": 8582694,
    "parentId": 3522509,
    "country": "MX",
    "name": "San Juan Teposcolula",
    "fullName": null,
    "lat": 17.58142,
    "lng": -97.41686,
    "tz": "America/Mexico_City"
  },
  {
    "id": 8582695,
    "parentId": 3522509,
    "country": "MX",
    "name": "San Juan Yaeé",
    "fullName": null,
    "lat": 17.43083,
    "lng": -96.2888,
    "tz": "America/Mexico_City"
  },
  {
    "id": 8582696,
    "parentId": 3522509,
    "country": "MX",
    "name": "San Juan Yatzona",
    "fullName": null,
    "lat": 17.40213,
    "lng": -96.16935,
    "tz": "America/Mexico_City"
  },
  {
    "id": 8582697,
    "parentId": 3522509,
    "country": "MX",
    "name": "San Juan Yucuita",
    "fullName": null,
    "lat": 17.51656,
    "lng": -97.26828,
    "tz": "America/Mexico_City"
  },
  {
    "id": 8582698,
    "parentId": 3522509,
    "country": "MX",
    "name": "San Lorenzo",
    "fullName": null,
    "lat": 16.41663,
    "lng": -97.88818,
    "tz": "America/Mexico_City"
  },
  {
    "id": 8582699,
    "parentId": 3522509,
    "country": "MX",
    "name": "San Lorenzo Albarradas",
    "fullName": null,
    "lat": 16.91286,
    "lng": -96.25275,
    "tz": "America/Mexico_City"
  },
  {
    "id": 8582700,
    "parentId": 3522509,
    "country": "MX",
    "name": "San Lorenzo Cacaotepec",
    "fullName": null,
    "lat": 17.13533,
    "lng": -96.7978,
    "tz": "America/Mexico_City"
  },
  {
    "id": 8582701,
    "parentId": 3522509,
    "country": "MX",
    "name": "San Lorenzo Cuaunecuiltitla",
    "fullName": null,
    "lat": 18.20694,
    "lng": -96.91139,
    "tz": "America/Mexico_City"
  },
  {
    "id": 8582702,
    "parentId": 3522509,
    "country": "MX",
    "name": "San Lorenzo Texmelúcan",
    "fullName": null,
    "lat": 16.53225,
    "lng": -97.18821,
    "tz": "America/Mexico_City"
  },
  {
    "id": 8582703,
    "parentId": 3522509,
    "country": "MX",
    "name": "San Lorenzo Victoria",
    "fullName": null,
    "lat": 17.6319,
    "lng": -98.12383,
    "tz": "America/Mexico_City"
  },
  {
    "id": 8582704,
    "parentId": 3522509,
    "country": "MX",
    "name": "San Lucas Camotlán",
    "fullName": null,
    "lat": 16.94632,
    "lng": -95.69889,
    "tz": "America/Mexico_City"
  },
  {
    "id": 8582705,
    "parentId": 3522509,
    "country": "MX",
    "name": "San Lucas Ojitlán",
    "fullName": null,
    "lat": 18.04194,
    "lng": -96.38469,
    "tz": "America/Mexico_City"
  },
  {
    "id": 8582706,
    "parentId": 3522509,
    "country": "MX",
    "name": "San Lucas Quiaviní",
    "fullName": null,
    "lat": 16.89361,
    "lng": -96.46778,
    "tz": "America/Mexico_City"
  },
  {
    "id": 8582707,
    "parentId": 3522509,
    "country": "MX",
    "name": "San Lucas Zoquiápam",
    "fullName": null,
    "lat": 18.12007,
    "lng": -96.90712,
    "tz": "America/Mexico_City"
  },
  {
    "id": 8582708,
    "parentId": 3522509,
    "country": "MX",
    "name": "San Luis Amatlán",
    "fullName": null,
    "lat": 16.457,
    "lng": -96.4895,
    "tz": "America/Mexico_City"
  },
  {
    "id": 8582709,
    "parentId": 3522509,
    "country": "MX",
    "name": "San Marcial Ozolotepec",
    "fullName": null,
    "lat": 16.05577,
    "lng": -96.40034,
    "tz": "America/Mexico_City"
  },
  {
    "id": 8582710,
    "parentId": 3522509,
    "country": "MX",
    "name": "San Marcos Arteaga",
    "fullName": null,
    "lat": 17.72936,
    "lng": -97.88633,
    "tz": "America/Mexico_City"
  },
  {
    "id": 8582711,
    "parentId": 3522509,
    "country": "MX",
    "name": "San Martín de los Cansecos",
    "fullName": null,
    "lat": 16.65611,
    "lng": -96.72111,
    "tz": "America/Mexico_City"
  },
  {
    "id": 8582712,
    "parentId": 3522509,
    "country": "MX",
    "name": "San Martín Huamelúlpam",
    "fullName": null,
    "lat": 17.3984,
    "lng": -97.60421,
    "tz": "America/Mexico_City"
  },
  {
    "id": 8582713,
    "parentId": 3522509,
    "country": "MX",
    "name": "San Martín Itunyoso",
    "fullName": null,
    "lat": 17.21204,
    "lng": -97.85846,
    "tz": "America/Mexico_City"
  },
  {
    "id": 8582714,
    "parentId": 3522509,
    "country": "MX",
    "name": "San Martín Lachilá",
    "fullName": null,
    "lat": 16.61074,
    "lng": -96.84648,
    "tz": "America/Mexico_City"
  },
  {
    "id": 8582715,
    "parentId": 3522509,
    "country": "MX",
    "name": "San Martín Peras",
    "fullName": null,
    "lat": 17.36826,
    "lng": -98.24467,
    "tz": "America/Mexico_City"
  },
  {
    "id": 8582716,
    "parentId": 3522509,
    "country": "MX",
    "name": "San Martín Tilcajete",
    "fullName": null,
    "lat": 16.86347,
    "lng": -96.69361,
    "tz": "America/Mexico_City"
  },
  {
    "id": 8582717,
    "parentId": 3522509,
    "country": "MX",
    "name": "San Martín Toxpalan",
    "fullName": null,
    "lat": 18.10724,
    "lng": -97.04088,
    "tz": "America/Mexico_City"
  },
  {
    "id": 8582718,
    "parentId": 3522509,
    "country": "MX",
    "name": "San Martín Zacatepec",
    "fullName": null,
    "lat": 17.81563,
    "lng": -98.07345,
    "tz": "America/Mexico_City"
  },
  {
    "id": 8582720,
    "parentId": 3522509,
    "country": "MX",
    "name": "San Mateo Cajonos",
    "fullName": null,
    "lat": 17.16074,
    "lng": -96.20537,
    "tz": "America/Mexico_City"
  },
  {
    "id": 8582722,
    "parentId": 3522509,
    "country": "MX",
    "name": "San Mateo del Mar",
    "fullName": null,
    "lat": 16.208,
    "lng": -95.03878,
    "tz": "America/Mexico_City"
  },
  {
    "id": 8582724,
    "parentId": 3522509,
    "country": "MX",
    "name": "San Mateo Etlatongo",
    "fullName": null,
    "lat": 17.41824,
    "lng": -97.26198,
    "tz": "America/Mexico_City"
  },
  {
    "id": 8582725,
    "parentId": 3522509,
    "country": "MX",
    "name": "San Mateo Nejápam",
    "fullName": null,
    "lat": 17.652,
    "lng": -98.40939,
    "tz": "America/Mexico_City"
  },
  {
    "id": 8582726,
    "parentId": 3522509,
    "country": "MX",
    "name": "San Mateo Peñasco",
    "fullName": null,
    "lat": 17.15083,
    "lng": -97.51644,
    "tz": "America/Mexico_City"
  },
  {
    "id": 8582727,
    "parentId": 3522509,
    "country": "MX",
    "name": "San Mateo Piñas",
    "fullName": null,
    "lat": 15.95722,
    "lng": -96.34002,
    "tz": "America/Mexico_City"
  },
  {
    "id": 8582728,
    "parentId": 3522509,
    "country": "MX",
    "name": "San Mateo Río Hondo",
    "fullName": null,
    "lat": 16.1293,
    "lng": -96.50935,
    "tz": "America/Mexico_City"
  },
  {
    "id": 8582729,
    "parentId": 3522509,
    "country": "MX",
    "name": "San Mateo Sindihui",
    "fullName": null,
    "lat": 16.98762,
    "lng": -97.36707,
    "tz": "America/Mexico_City"
  },
  {
    "id": 8582730,
    "parentId": 3522509,
    "country": "MX",
    "name": "San Mateo Tlapiltepec",
    "fullName": null,
    "lat": 17.80824,
    "lng": -97.42676,
    "tz": "America/Mexico_City"
  },
  {
    "id": 8582723,
    "parentId": 3522509,
    "country": "MX",
    "name": "San Mateo Yoloxochitlán",
    "fullName": null,
    "lat": 18.14157,
    "lng": -96.86417,
    "tz": "America/Mexico_City"
  },
  {
    "id": 8583042,
    "parentId": 3522509,
    "country": "MX",
    "name": "San Mateo Yucutindoo",
    "fullName": null,
    "lat": 16.79163,
    "lng": -97.29556,
    "tz": "America/Mexico_City"
  },
  {
    "id": 8582731,
    "parentId": 3522509,
    "country": "MX",
    "name": "San Melchor Betaza",
    "fullName": null,
    "lat": 17.25602,
    "lng": -96.14713,
    "tz": "America/Mexico_City"
  },
  {
    "id": 8582732,
    "parentId": 3522509,
    "country": "MX",
    "name": "San Miguel Achiutla",
    "fullName": null,
    "lat": 17.30639,
    "lng": -97.48889,
    "tz": "America/Mexico_City"
  },
  {
    "id": 8582733,
    "parentId": 3522509,
    "country": "MX",
    "name": "San Miguel Ahuehuetitlán",
    "fullName": null,
    "lat": 17.65537,
    "lng": -98.34144,
    "tz": "America/Mexico_City"
  },
  {
    "id": 8582734,
    "parentId": 3522509,
    "country": "MX",
    "name": "San Miguel Aloápam",
    "fullName": null,
    "lat": 17.40213,
    "lng": -96.70435,
    "tz": "America/Mexico_City"
  },
  {
    "id": 8582735,
    "parentId": 3522509,
    "country": "MX",
    "name": "San Miguel Amatitlán",
    "fullName": null,
    "lat": 17.88319,
    "lng": -98.01399,
    "tz": "America/Mexico_City"
  },
  {
    "id": 8582736,
    "parentId": 3522509,
    "country": "MX",
    "name": "San Miguel Amatlán",
    "fullName": null,
    "lat": 17.20015,
    "lng": -96.45641,
    "tz": "America/Mexico_City"
  },
  {
    "id": 8582738,
    "parentId": 3522509,
    "country": "MX",
    "name": "San Miguel Chicahua",
    "fullName": null,
    "lat": 17.62867,
    "lng": -97.1951,
    "tz": "America/Mexico_City"
  },
  {
    "id": 8582739,
    "parentId": 3522509,
    "country": "MX",
    "name": "San Miguel Chimalapa",
    "fullName": null,
    "lat": 16.64657,
    "lng": -94.47607,
    "tz": "America/Mexico_City"
  },
  {
    "id": 8582737,
    "parentId": 3522509,
    "country": "MX",
    "name": "San Miguel Coatlán",
    "fullName": null,
    "lat": 16.16358,
    "lng": -96.69097,
    "tz": "America/Mexico_City"
  },
  {
    "id": 8582740,
    "parentId": 3522509,
    "country": "MX",
    "name": "San Miguel del Puerto",
    "fullName": null,
    "lat": 15.94058,
    "lng": -96.11858,
    "tz": "America/Mexico_City"
  },
  {
    "id": 8582741,
    "parentId": 3522509,
    "country": "MX",
    "name": "San Miguel del Río",
    "fullName": null,
    "lat": 17.32292,
    "lng": -96.56944,
    "tz": "America/Mexico_City"
  },
  {
    "id": 8582742,
    "parentId": 3522509,
    "country": "MX",
    "name": "San Miguel Ejutla",
    "fullName": null,
    "lat": 16.59407,
    "lng": -96.73769,
    "tz": "America/Mexico_City"
  },
  {
    "id": 8582743,
    "parentId": 3522509,
    "country": "MX",
    "name": "San Miguel el Grande",
    "fullName": null,
    "lat": 17.06466,
    "lng": -97.61547,
    "tz": "America/Mexico_City"
  },
  {
    "id": 8582744,
    "parentId": 3522509,
    "country": "MX",
    "name": "San Miguel Huautla",
    "fullName": null,
    "lat": 17.7437,
    "lng": -97.1509,
    "tz": "America/Mexico_City"
  },
  {
    "id": 8582745,
    "parentId": 3522509,
    "country": "MX",
    "name": "San Miguel Mixtepec",
    "fullName": null,
    "lat": 16.7655,
    "lng": -96.93899,
    "tz": "America/Mexico_City"
  },
  {
    "id": 8582746,
    "parentId": 3522509,
    "country": "MX",
    "name": "San Miguel Panixtlahuaca",
    "fullName": null,
    "lat": 16.25201,
    "lng": -97.40976,
    "tz": "America/Mexico_City"
  },
  {
    "id": 8582747,
    "parentId": 3522509,
    "country": "MX",
    "name": "San Miguel Peras",
    "fullName": null,
    "lat": 16.93141,
    "lng": -97.00831,
    "tz": "America/Mexico_City"
  },
  {
    "id": 8582748,
    "parentId": 3522509,
    "country": "MX",
    "name": "San Miguel Piedras",
    "fullName": null,
    "lat": 16.98723,
    "lng": -97.23223,
    "tz": "America/Mexico_City"
  },
  {
    "id": 8582749,
    "parentId": 3522509,
    "country": "MX",
    "name": "San Miguel Quetzaltepec",
    "fullName": null,
    "lat": 16.98335,
    "lng": -95.76197,
    "tz": "America/Mexico_City"
  },
  {
    "id": 8582750,
    "parentId": 3522509,
    "country": "MX",
    "name": "San Miguel Santa Flor",
    "fullName": null,
    "lat": 17.92889,
    "lng": -96.7975,
    "tz": "America/Mexico_City"
  },
  {
    "id": 8582752,
    "parentId": 3522509,
    "country": "MX",
    "name": "San Miguel Soyaltepec",
    "fullName": null,
    "lat": 18.25404,
    "lng": -96.396,
    "tz": "America/Mexico_City"
  },
  {
    "id": 8582753,
    "parentId": 3522509,
    "country": "MX",
    "name": "San Miguel Suchixtepec",
    "fullName": null,
    "lat": 16.07765,
    "lng": -96.46299,
    "tz": "America/Mexico_City"
  },
  {
    "id": 8582755,
    "parentId": 3522509,
    "country": "MX",
    "name": "San Miguel Tecomatlán",
    "fullName": null,
    "lat": 17.39517,
    "lng": -97.26961,
    "tz": "America/Mexico_City"
  },
  {
    "id": 8582756,
    "parentId": 3522509,
    "country": "MX",
    "name": "San Miguel Tenango",
    "fullName": null,
    "lat": 16.23803,
    "lng": -95.55662,
    "tz": "America/Mexico_City"
  },
  {
    "id": 8582757,
    "parentId": 3522509,
    "country": "MX",
    "name": "San Miguel Tequixtepec",
    "fullName": null,
    "lat": 17.80225,
    "lng": -97.3241,
    "tz": "America/Mexico_City"
  },
  {
    "id": 8582758,
    "parentId": 3522509,
    "country": "MX",
    "name": "San Miguel Tilquiápam",
    "fullName": null,
    "lat": 16.77454,
    "lng": -96.57037,
    "tz": "America/Mexico_City"
  },
  {
    "id": 8582759,
    "parentId": 3522509,
    "country": "MX",
    "name": "San Miguel Tlacamama",
    "fullName": null,
    "lat": 16.43017,
    "lng": -98.09096,
    "tz": "America/Mexico_City"
  },
  {
    "id": 8582760,
    "parentId": 3522509,
    "country": "MX",
    "name": "San Miguel Tlacotepec",
    "fullName": null,
    "lat": 17.44328,
    "lng": -98.01157,
    "tz": "America/Mexico_City"
  },
  {
    "id": 8582761,
    "parentId": 3522509,
    "country": "MX",
    "name": "San Miguel Tulancingo",
    "fullName": null,
    "lat": 17.75137,
    "lng": -97.44252,
    "tz": "America/Mexico_City"
  },
  {
    "id": 8582762,
    "parentId": 3522509,
    "country": "MX",
    "name": "San Miguel Yotao",
    "fullName": null,
    "lat": 17.37056,
    "lng": -96.33639,
    "tz": "America/Mexico_City"
  },
  {
    "id": 8582763,
    "parentId": 3522509,
    "country": "MX",
    "name": "San Nicolás",
    "fullName": null,
    "lat": 16.44269,
    "lng": -96.72843,
    "tz": "America/Mexico_City"
  },
  {
    "id": 8582764,
    "parentId": 3522509,
    "country": "MX",
    "name": "San Nicolás Hidalgo",
    "fullName": null,
    "lat": 17.78264,
    "lng": -98.16188,
    "tz": "America/Mexico_City"
  },
  {
    "id": 8582765,
    "parentId": 3522509,
    "country": "MX",
    "name": "San Pablo Coatlán",
    "fullName": null,
    "lat": 16.12578,
    "lng": -96.81636,
    "tz": "America/Mexico_City"
  },
  {
    "id": 8582766,
    "parentId": 3522509,
    "country": "MX",
    "name": "San Pablo Cuatro Venados",
    "fullName": null,
    "lat": 16.97504,
    "lng": -96.88921,
    "tz": "America/Mexico_City"
  },
  {
    "id": 8582767,
    "parentId": 3522509,
    "country": "MX",
    "name": "San Pablo Etla",
    "fullName": null,
    "lat": 17.15439,
    "lng": -96.76781,
    "tz": "America/Mexico_City"
  },
  {
    "id": 8582768,
    "parentId": 3522509,
    "country": "MX",
    "name": "San Pablo Huitzo",
    "fullName": null,
    "lat": 17.29933,
    "lng": -96.87978,
    "tz": "America/Mexico_City"
  },
  {
    "id": 8582769,
    "parentId": 3522509,
    "country": "MX",
    "name": "San Pablo Huixtepec",
    "fullName": null,
    "lat": 16.81813,
    "lng": -96.79585,
    "tz": "America/Mexico_City"
  },
  {
    "id": 8582770,
    "parentId": 3522509,
    "country": "MX",
    "name": "San Pablo Macuiltianguis",
    "fullName": null,
    "lat": 17.52909,
    "lng": -96.53968,
    "tz": "America/Mexico_City"
  },
  {
    "id": 8582771,
    "parentId": 3522509,
    "country": "MX",
    "name": "San Pablo Tijaltepec",
    "fullName": null,
    "lat": 17.02549,
    "lng": -97.49199,
    "tz": "America/Mexico_City"
  },
  {
    "id": 8582772,
    "parentId": 3522509,
    "country": "MX",
    "name": "San Pablo Villa de Mitla",
    "fullName": null,
    "lat": 16.93364,
    "lng": -96.33833,
    "tz": "America/Mexico_City"
  },
  {
    "id": 8582773,
    "parentId": 3522509,
    "country": "MX",
    "name": "San Pablo Yaganiza",
    "fullName": null,
    "lat": 17.14486,
    "lng": -96.22653,
    "tz": "America/Mexico_City"
  },
  {
    "id": 8582774,
    "parentId": 3522509,
    "country": "MX",
    "name": "San Pedro Amuzgos",
    "fullName": null,
    "lat": 16.66931,
    "lng": -98.08892,
    "tz": "America/Mexico_City"
  },
  {
    "id": 8582775,
    "parentId": 3522509,
    "country": "MX",
    "name": "San Pedro Apóstol",
    "fullName": null,
    "lat": 16.73657,
    "lng": -96.72509,
    "tz": "America/Mexico_City"
  },
  {
    "id": 8582776,
    "parentId": 3522509,
    "country": "MX",
    "name": "San Pedro Atoyac",
    "fullName": null,
    "lat": 16.50801,
    "lng": -97.97336,
    "tz": "America/Mexico_City"
  },
  {
    "id": 8582777,
    "parentId": 3522509,
    "country": "MX",
    "name": "San Pedro Cajonos",
    "fullName": null,
    "lat": 17.16593,
    "lng": -96.26139,
    "tz": "America/Mexico_City"
  },
  {
    "id": 8582779,
    "parentId": 3522509,
    "country": "MX",
    "name": "San Pedro Comitancillo",
    "fullName": null,
    "lat": 16.47843,
    "lng": -95.14963,
    "tz": "America/Mexico_City"
  },
  {
    "id": 8582778,
    "parentId": 3522509,
    "country": "MX",
    "name": "San Pedro Coxcaltepec Cántaros",
    "fullName": null,
    "lat": 17.51617,
    "lng": -97.11408,
    "tz": "America/Mexico_City"
  },
  {
    "id": 8582780,
    "parentId": 3522509,
    "country": "MX",
    "name": "San Pedro el Alto",
    "fullName": null,
    "lat": 16.01077,
    "lng": -96.47591,
    "tz": "America/Mexico_City"
  },
  {
    "id": 8582781,
    "parentId": 3522509,
    "country": "MX",
    "name": "San Pedro Huamelula",
    "fullName": null,
    "lat": 15.98318,
    "lng": -95.74633,
    "tz": "America/Mexico_City"
  },
  {
    "id": 8582782,
    "parentId": 3522509,
    "country": "MX",
    "name": "San Pedro Huilotepec",
    "fullName": null,
    "lat": 16.23787,
    "lng": -95.155,
    "tz": "America/Mexico_City"
  },
  {
    "id": 8582783,
    "parentId": 3522509,
    "country": "MX",
    "name": "San Pedro Ixcatlán",
    "fullName": null,
    "lat": 18.15344,
    "lng": -96.53979,
    "tz": "America/Mexico_City"
  },
  {
    "id": 8582784,
    "parentId": 3522509,
    "country": "MX",
    "name": "San Pedro Ixtlahuaca",
    "fullName": null,
    "lat": 17.05529,
    "lng": -96.8022,
    "tz": "America/Mexico_City"
  },
  {
    "id": 8582785,
    "parentId": 3522509,
    "country": "MX",
    "name": "San Pedro Jaltepetongo",
    "fullName": null,
    "lat": 17.68861,
    "lng": -97.03389,
    "tz": "America/Mexico_City"
  },
  {
    "id": 8582786,
    "parentId": 3522509,
    "country": "MX",
    "name": "San Pedro Jicayán",
    "fullName": null,
    "lat": 16.46477,
    "lng": -98.04313,
    "tz": "America/Mexico_City"
  },
  {
    "id": 8582787,
    "parentId": 3522509,
    "country": "MX",
    "name": "San Pedro Jocotipac",
    "fullName": null,
    "lat": 17.76729,
    "lng": -97.08229,
    "tz": "America/Mexico_City"
  },
  {
    "id": 8582788,
    "parentId": 3522509,
    "country": "MX",
    "name": "San Pedro Juchatengo",
    "fullName": null,
    "lat": 16.3264,
    "lng": -97.1042,
    "tz": "America/Mexico_City"
  },
  {
    "id": 8582789,
    "parentId": 3522509,
    "country": "MX",
    "name": "San Pedro Mártir",
    "fullName": null,
    "lat": 16.74458,
    "lng": -96.7134,
    "tz": "America/Mexico_City"
  },
  {
    "id": 8582790,
    "parentId": 3522509,
    "country": "MX",
    "name": "San Pedro Mártir Quiechapa",
    "fullName": null,
    "lat": 16.41306,
    "lng": -96.24722,
    "tz": "America/Mexico_City"
  },
  {
    "id": 8582791,
    "parentId": 3522509,
    "country": "MX",
    "name": "San Pedro Mártir Yucuxaco",
    "fullName": null,
    "lat": 17.43856,
    "lng": -97.62134,
    "tz": "America/Mexico_City"
  },
  {
    "id": 8582792,
    "parentId": 3522509,
    "country": "MX",
    "name": "San Pedro Mixtepec -Dto. 22 -",
    "fullName": null,
    "lat": 15.93766,
    "lng": -97.0816,
    "tz": "America/Mexico_City"
  },
  {
    "id": 8582793,
    "parentId": 3522509,
    "country": "MX",
    "name": "San Pedro Mixtepec -Dto. 26 -",
    "fullName": null,
    "lat": 16.21509,
    "lng": -96.21722,
    "tz": "America/Mexico_City"
  },
  {
    "id": 8582794,
    "parentId": 3522509,
    "country": "MX",
    "name": "San Pedro Molinos",
    "fullName": null,
    "lat": 17.10031,
    "lng": -97.55174,
    "tz": "America/Mexico_City"
  },
  {
    "id": 8582795,
    "parentId": 3522509,
    "country": "MX",
    "name": "San Pedro Nopala",
    "fullName": null,
    "lat": 17.80962,
    "lng": -97.5475,
    "tz": "America/Mexico_City"
  },
  {
    "id": 8582796,
    "parentId": 3522509,
    "country": "MX",
    "name": "San Pedro Ocopetatillo",
    "fullName": null,
    "lat": 18.18417,
    "lng": -96.91278,
    "tz": "America/Mexico_City"
  },
  {
    "id": 8582797,
    "parentId": 3522509,
    "country": "MX",
    "name": "San Pedro Ocotepec",
    "fullName": null,
    "lat": 16.96491,
    "lng": -95.84264,
    "tz": "America/Mexico_City"
  },
  {
    "id": 8582798,
    "parentId": 3522509,
    "country": "MX",
    "name": "San Pedro Pochutla",
    "fullName": null,
    "lat": 15.78899,
    "lng": -96.43126,
    "tz": "America/Mexico_City"
  },
  {
    "id": 8582799,
    "parentId": 3522509,
    "country": "MX",
    "name": "San Pedro Quiatoni",
    "fullName": null,
    "lat": 16.76269,
    "lng": -96.03722,
    "tz": "America/Mexico_City"
  },
  {
    "id": 8582800,
    "parentId": 3522509,
    "country": "MX",
    "name": "San Pedro Sochiápam",
    "fullName": null,
    "lat": 17.81431,
    "lng": -96.64562,
    "tz": "America/Mexico_City"
  },
  {
    "id": 8582801,
    "parentId": 3522509,
    "country": "MX",
    "name": "San Pedro Tapanatepec",
    "fullName": null,
    "lat": 16.3042,
    "lng": -94.28501,
    "tz": "America/Mexico_City"
  },
  {
    "id": 8582802,
    "parentId": 3522509,
    "country": "MX",
    "name": "San Pedro Taviche",
    "fullName": null,
    "lat": 16.64881,
    "lng": -96.53353,
    "tz": "America/Mexico_City"
  },
  {
    "id": 8582803,
    "parentId": 3522509,
    "country": "MX",
    "name": "San Pedro Teozacoalco",
    "fullName": null,
    "lat": 17.00295,
    "lng": -97.30253,
    "tz": "America/Mexico_City"
  },
  {
    "id": 8582804,
    "parentId": 3522509,
    "country": "MX",
    "name": "San Pedro Teutila",
    "fullName": null,
    "lat": 17.99028,
    "lng": -96.62867,
    "tz": "America/Mexico_City"
  },
  {
    "id": 8582805,
    "parentId": 3522509,
    "country": "MX",
    "name": "San Pedro Tidaá",
    "fullName": null,
    "lat": 17.33944,
    "lng": -97.37986,
    "tz": "America/Mexico_City"
  },
  {
    "id": 8582806,
    "parentId": 3522509,
    "country": "MX",
    "name": "San Pedro Topiltepec",
    "fullName": null,
    "lat": 17.44319,
    "lng": -97.34618,
    "tz": "America/Mexico_City"
  },
  {
    "id": 8582807,
    "parentId": 3522509,
    "country": "MX",
    "name": "San Pedro Totolápam",
    "fullName": null,
    "lat": 16.66399,
    "lng": -96.2354,
    "tz": "America/Mexico_City"
  },
  {
    "id": 8582811,
    "parentId": 3522509,
    "country": "MX",
    "name": "San Pedro y San Pablo Ayutla",
    "fullName": null,
    "lat": 17.02593,
    "lng": -96.13577,
    "tz": "America/Mexico_City"
  },
  {
    "id": 8582813,
    "parentId": 3522509,
    "country": "MX",
    "name": "San Pedro y San Pablo Teposcolula",
    "fullName": null,
    "lat": 17.50179,
    "lng": -97.48836,
    "tz": "America/Mexico_City"
  },
  {
    "id": 8582814,
    "parentId": 3522509,
    "country": "MX",
    "name": "San Pedro y San Pablo Tequixtepec",
    "fullName": null,
    "lat": 18.08622,
    "lng": -97.7066,
    "tz": "America/Mexico_City"
  },
  {
    "id": 8582809,
    "parentId": 3522509,
    "country": "MX",
    "name": "San Pedro Yaneri",
    "fullName": null,
    "lat": 17.41009,
    "lng": -96.36417,
    "tz": "America/Mexico_City"
  },
  {
    "id": 8582810,
    "parentId": 3522509,
    "country": "MX",
    "name": "San Pedro Yólox",
    "fullName": null,
    "lat": 17.62516,
    "lng": -96.48319,
    "tz": "America/Mexico_City"
  },
  {
    "id": 8582815,
    "parentId": 3522509,
    "country": "MX",
    "name": "San Pedro Yucunama",
    "fullName": null,
    "lat": 17.56315,
    "lng": -97.48139,
    "tz": "America/Mexico_City"
  },
  {
    "id": 8582816,
    "parentId": 3522509,
    "country": "MX",
    "name": "San Raymundo Jalpan",
    "fullName": null,
    "lat": 16.98416,
    "lng": -96.75287,
    "tz": "America/Mexico_City"
  },
  {
    "id": 8582817,
    "parentId": 3522509,
    "country": "MX",
    "name": "San Sebastián Abasolo",
    "fullName": null,
    "lat": 16.98641,
    "lng": -96.63912,
    "tz": "America/Mexico_City"
  },
  {
    "id": 8582818,
    "parentId": 3522509,
    "country": "MX",
    "name": "San Sebastián Coatlán",
    "fullName": null,
    "lat": 16.10701,
    "lng": -96.88719,
    "tz": "America/Mexico_City"
  },
  {
    "id": 8582819,
    "parentId": 3522509,
    "country": "MX",
    "name": "San Sebastián Ixcapa",
    "fullName": null,
    "lat": 16.52184,
    "lng": -98.14293,
    "tz": "America/Mexico_City"
  },
  {
    "id": 8582820,
    "parentId": 3522509,
    "country": "MX",
    "name": "San Sebastián Nicananduta",
    "fullName": null,
    "lat": 17.51657,
    "lng": -97.6837,
    "tz": "America/Mexico_City"
  },
  {
    "id": 8582821,
    "parentId": 3522509,
    "country": "MX",
    "name": "San Sebastián Río Hondo",
    "fullName": null,
    "lat": 16.19024,
    "lng": -96.44065,
    "tz": "America/Mexico_City"
  },
  {
    "id": 8582822,
    "parentId": 3522509,
    "country": "MX",
    "name": "San Sebastián Tecomaxtlahuaca",
    "fullName": null,
    "lat": 17.35514,
    "lng": -98.08025,
    "tz": "America/Mexico_City"
  },
  {
    "id": 8582823,
    "parentId": 3522509,
    "country": "MX",
    "name": "San Sebastián Teitipac",
    "fullName": null,
    "lat": 16.95217,
    "lng": -96.61917,
    "tz": "America/Mexico_City"
  },
  {
    "id": 8582824,
    "parentId": 3522509,
    "country": "MX",
    "name": "San Sebastián Tutla",
    "fullName": null,
    "lat": 17.04755,
    "lng": -96.68158,
    "tz": "America/Mexico_City"
  },
  {
    "id": 8582825,
    "parentId": 3522509,
    "country": "MX",
    "name": "San Simón Almolongas",
    "fullName": null,
    "lat": 16.4167,
    "lng": -96.71167,
    "tz": "America/Mexico_City"
  },
  {
    "id": 8582826,
    "parentId": 3522509,
    "country": "MX",
    "name": "San Simón Zahuatlán",
    "fullName": null,
    "lat": 17.83373,
    "lng": -98.00127,
    "tz": "America/Mexico_City"
  },
  {
    "id": 8583009,
    "parentId": 3522509,
    "country": "MX",
    "name": "San Vicente Coatlán",
    "fullName": null,
    "lat": 16.37919,
    "lng": -96.848,
    "tz": "America/Mexico_City"
  },
  {
    "id": 8583011,
    "parentId": 3522509,
    "country": "MX",
    "name": "San Vicente Lachixío",
    "fullName": null,
    "lat": 16.68191,
    "lng": -97.0158,
    "tz": "America/Mexico_City"
  },
  {
    "id": 8583012,
    "parentId": 3522509,
    "country": "MX",
    "name": "San Vicente Nuñú",
    "fullName": null,
    "lat": 17.44102,
    "lng": -97.4431,
    "tz": "America/Mexico_City"
  },
  {
    "id": 8582827,
    "parentId": 3522509,
    "country": "MX",
    "name": "Santa Ana",
    "fullName": null,
    "lat": 16.34917,
    "lng": -96.71708,
    "tz": "America/Mexico_City"
  },
  {
    "id": 8582828,
    "parentId": 3522509,
    "country": "MX",
    "name": "Santa Ana Ateixtlahuaca",
    "fullName": null,
    "lat": 18.23004,
    "lng": -96.87853,
    "tz": "America/Mexico_City"
  },
  {
    "id": 8582829,
    "parentId": 3522509,
    "country": "MX",
    "name": "Santa Ana Cuauhtémoc",
    "fullName": null,
    "lat": 17.97389,
    "lng": -96.79768,
    "tz": "America/Mexico_City"
  },
  {
    "id": 8582830,
    "parentId": 3522509,
    "country": "MX",
    "name": "Santa Ana del Valle",
    "fullName": null,
    "lat": 16.99361,
    "lng": -96.47167,
    "tz": "America/Mexico_City"
  },
  {
    "id": 8582831,
    "parentId": 3522509,
    "country": "MX",
    "name": "Santa Ana Tavela",
    "fullName": null,
    "lat": 16.65264,
    "lng": -95.90556,
    "tz": "America/Mexico_City"
  },
  {
    "id": 8582832,
    "parentId": 3522509,
    "country": "MX",
    "name": "Santa Ana Tlapacoyan",
    "fullName": null,
    "lat": 16.74278,
    "lng": -96.85583,
    "tz": "America/Mexico_City"
  },
  {
    "id": 8582833,
    "parentId": 3522509,
    "country": "MX",
    "name": "Santa Ana Yareni",
    "fullName": null,
    "lat": 17.39278,
    "lng": -96.62417,
    "tz": "America/Mexico_City"
  },
  {
    "id": 8582834,
    "parentId": 3522509,
    "country": "MX",
    "name": "Santa Ana Zegache",
    "fullName": null,
    "lat": 16.83981,
    "lng": -96.72713,
    "tz": "America/Mexico_City"
  },
  {
    "id": 8582835,
    "parentId": 3522509,
    "country": "MX",
    "name": "Santa Catalina Quierí",
    "fullName": null,
    "lat": 16.31972,
    "lng": -96.26694,
    "tz": "America/Mexico_City"
  },
  {
    "id": 8582836,
    "parentId": 3522509,
    "country": "MX",
    "name": "Santa Catarina Cuixtla",
    "fullName": null,
    "lat": 16.3051,
    "lng": -96.64472,
    "tz": "America/Mexico_City"
  },
  {
    "id": 8582837,
    "parentId": 3522509,
    "country": "MX",
    "name": "Santa Catarina Ixtepeji",
    "fullName": null,
    "lat": 17.2124,
    "lng": -96.57941,
    "tz": "America/Mexico_City"
  },
  {
    "id": 8582838,
    "parentId": 3522509,
    "country": "MX",
    "name": "Santa Catarina Juquila",
    "fullName": null,
    "lat": 16.15311,
    "lng": -97.30605,
    "tz": "America/Mexico_City"
  },
  {
    "id": 8582839,
    "parentId": 3522509,
    "country": "MX",
    "name": "Santa Catarina Lachatao",
    "fullName": null,
    "lat": 17.18409,
    "lng": -96.50126,
    "tz": "America/Mexico_City"
  },
  {
    "id": 8582840,
    "parentId": 3522509,
    "country": "MX",
    "name": "Santa Catarina Loxicha",
    "fullName": null,
    "lat": 16.06327,
    "lng": -96.71942,
    "tz": "America/Mexico_City"
  },
  {
    "id": 8582841,
    "parentId": 3522509,
    "country": "MX",
    "name": "Santa Catarina Mechoacán",
    "fullName": null,
    "lat": 16.32528,
    "lng": -97.84396,
    "tz": "America/Mexico_City"
  },
  {
    "id": 8582842,
    "parentId": 3522509,
    "country": "MX",
    "name": "Santa Catarina Minas",
    "fullName": null,
    "lat": 16.77728,
    "lng": -96.62533,
    "tz": "America/Mexico_City"
  },
  {
    "id": 8582843,
    "parentId": 3522509,
    "country": "MX",
    "name": "Santa Catarina Quiané",
    "fullName": null,
    "lat": 16.88813,
    "lng": -96.73758,
    "tz": "America/Mexico_City"
  },
  {
    "id": 8582545,
    "parentId": 3522509,
    "country": "MX",
    "name": "Santa Catarina Quioquitani",
    "fullName": null,
    "lat": 16.31472,
    "lng": -96.28444,
    "tz": "America/Mexico_City"
  },
  {
    "id": 8582844,
    "parentId": 3522509,
    "country": "MX",
    "name": "Santa Catarina Tayata",
    "fullName": null,
    "lat": 17.34717,
    "lng": -97.55708,
    "tz": "America/Mexico_City"
  },
  {
    "id": 8582845,
    "parentId": 3522509,
    "country": "MX",
    "name": "Santa Catarina Ticuá",
    "fullName": null,
    "lat": 17.0663,
    "lng": -97.53509,
    "tz": "America/Mexico_City"
  },
  {
    "id": 8582847,
    "parentId": 3522509,
    "country": "MX",
    "name": "Santa Catarina Yosonotú",
    "fullName": null,
    "lat": 17.00788,
    "lng": -97.66986,
    "tz": "America/Mexico_City"
  },
  {
    "id": 8582848,
    "parentId": 3522509,
    "country": "MX",
    "name": "Santa Catarina Zapoquila",
    "fullName": null,
    "lat": 18.05667,
    "lng": -97.58838,
    "tz": "America/Mexico_City"
  },
  {
    "id": 8582849,
    "parentId": 3522509,
    "country": "MX",
    "name": "Santa Cruz Acatepec",
    "fullName": null,
    "lat": 18.15736,
    "lng": -96.8834,
    "tz": "America/Mexico_City"
  },
  {
    "id": 8582850,
    "parentId": 3522509,
    "country": "MX",
    "name": "Santa Cruz Amilpas",
    "fullName": null,
    "lat": 17.05833,
    "lng": -96.68333,
    "tz": "America/Mexico_City"
  },
  {
    "id": 8582851,
    "parentId": 3522509,
    "country": "MX",
    "name": "Santa Cruz de Bravo",
    "fullName": null,
    "lat": 17.57972,
    "lng": -98.22361,
    "tz": "America/Mexico_City"
  },
  {
    "id": 8582852,
    "parentId": 3522509,
    "country": "MX",
    "name": "Santa Cruz Itundujia",
    "fullName": null,
    "lat": 16.76251,
    "lng": -97.66843,
    "tz": "America/Mexico_City"
  },
  {
    "id": 8582853,
    "parentId": 3522509,
    "country": "MX",
    "name": "Santa Cruz Mixtepec",
    "fullName": null,
    "lat": 16.78111,
    "lng": -96.85555,
    "tz": "America/Mexico_City"
  },
  {
    "id": 8582854,
    "parentId": 3522509,
    "country": "MX",
    "name": "Santa Cruz Nundaco",
    "fullName": null,
    "lat": 17.16597,
    "lng": -97.71756,
    "tz": "America/Mexico_City"
  },
  {
    "id": 8582855,
    "parentId": 3522509,
    "country": "MX",
    "name": "Santa Cruz Papalutla",
    "fullName": null,
    "lat": 16.95667,
    "lng": -96.58444,
    "tz": "America/Mexico_City"
  },
  {
    "id": 8582856,
    "parentId": 3522509,
    "country": "MX",
    "name": "Santa Cruz Tacache de Mina",
    "fullName": null,
    "lat": 17.82104,
    "lng": -98.15021,
    "tz": "America/Mexico_City"
  },
  {
    "id": 8582857,
    "parentId": 3522509,
    "country": "MX",
    "name": "Santa Cruz Tacahua",
    "fullName": null,
    "lat": 16.92033,
    "lng": -97.48083,
    "tz": "America/Mexico_City"
  },
  {
    "id": 8582858,
    "parentId": 3522509,
    "country": "MX",
    "name": "Santa Cruz Tayata",
    "fullName": null,
    "lat": 17.37287,
    "lng": -97.565,
    "tz": "America/Mexico_City"
  },
  {
    "id": 8582859,
    "parentId": 3522509,
    "country": "MX",
    "name": "Santa Cruz Xitla",
    "fullName": null,
    "lat": 16.3496,
    "lng": -96.68242,
    "tz": "America/Mexico_City"
  },
  {
    "id": 8582860,
    "parentId": 3522509,
    "country": "MX",
    "name": "Santa Cruz Xoxocotlán",
    "fullName": null,
    "lat": 17.02401,
    "lng": -96.75582,
    "tz": "America/Mexico_City"
  },
  {
    "id": 8582861,
    "parentId": 3522509,
    "country": "MX",
    "name": "Santa Cruz Zenzontepec",
    "fullName": null,
    "lat": 16.49605,
    "lng": -97.48268,
    "tz": "America/Mexico_City"
  },
  {
    "id": 8582862,
    "parentId": 3522509,
    "country": "MX",
    "name": "Santa Gertrudis",
    "fullName": null,
    "lat": 16.78508,
    "lng": -96.80187,
    "tz": "America/Mexico_City"
  },
  {
    "id": 8583045,
    "parentId": 3522509,
    "country": "MX",
    "name": "Santa Inés de Zaragoza",
    "fullName": null,
    "lat": 17.26946,
    "lng": -97.1512,
    "tz": "America/Mexico_City"
  },
  {
    "id": 8582863,
    "parentId": 3522509,
    "country": "MX",
    "name": "Santa Inés del Monte",
    "fullName": null,
    "lat": 16.92433,
    "lng": -96.85685,
    "tz": "America/Mexico_City"
  },
  {
    "id": 8582864,
    "parentId": 3522509,
    "country": "MX",
    "name": "Santa Inés Yatzeche",
    "fullName": null,
    "lat": 16.80444,
    "lng": -96.75486,
    "tz": "America/Mexico_City"
  },
  {
    "id": 8582865,
    "parentId": 3522509,
    "country": "MX",
    "name": "Santa Lucía del Camino",
    "fullName": null,
    "lat": 17.06667,
    "lng": -96.68069,
    "tz": "America/Mexico_City"
  },
  {
    "id": 8582866,
    "parentId": 3522509,
    "country": "MX",
    "name": "Santa Lucía Miahuatlán",
    "fullName": null,
    "lat": 16.18181,
    "lng": -96.62257,
    "tz": "America/Mexico_City"
  },
  {
    "id": 8582867,
    "parentId": 3522509,
    "country": "MX",
    "name": "Santa Lucía Monteverde",
    "fullName": null,
    "lat": 16.94906,
    "lng": -97.71261,
    "tz": "America/Mexico_City"
  },
  {
    "id": 8582868,
    "parentId": 3522509,
    "country": "MX",
    "name": "Santa Lucía Ocotlán",
    "fullName": null,
    "lat": 16.72986,
    "lng": -96.66514,
    "tz": "America/Mexico_City"
  },
  {
    "id": 8582518,
    "parentId": 3522509,
    "country": "MX",
    "name": "Santa Magdalena Jicotlán",
    "fullName": null,
    "lat": 17.80819,
    "lng": -97.47389,
    "tz": "America/Mexico_City"
  },
  {
    "id": 8582869,
    "parentId": 3522509,
    "country": "MX",
    "name": "Santa María Alotepec",
    "fullName": null,
    "lat": 17.04991,
    "lng": -95.85858,
    "tz": "America/Mexico_City"
  },
  {
    "id": 8582870,
    "parentId": 3522509,
    "country": "MX",
    "name": "Santa María Apazco",
    "fullName": null,
    "lat": 17.62226,
    "lng": -97.08524,
    "tz": "America/Mexico_City"
  },
  {
    "id": 8582874,
    "parentId": 3522509,
    "country": "MX",
    "name": "Santa María Atzompa",
    "fullName": null,
    "lat": 17.09835,
    "lng": -96.78495,
    "tz": "America/Mexico_City"
  },
  {
    "id": 8582875,
    "parentId": 3522509,
    "country": "MX",
    "name": "Santa María Camotlán",
    "fullName": null,
    "lat": 17.88186,
    "lng": -97.68494,
    "tz": "America/Mexico_City"
  },
  {
    "id": 8582879,
    "parentId": 3522509,
    "country": "MX",
    "name": "Santa María Chachoápam",
    "fullName": null,
    "lat": 17.56576,
    "lng": -97.26065,
    "tz": "America/Mexico_City"
  },
  {
    "id": 8582881,
    "parentId": 3522509,
    "country": "MX",
    "name": "Santa María Chilchotla",
    "fullName": null,
    "lat": 18.27553,
    "lng": -96.77636,
    "tz": "America/Mexico_City"
  },
  {
    "id": 8582882,
    "parentId": 3522509,
    "country": "MX",
    "name": "Santa María Chimalapa",
    "fullName": null,
    "lat": 16.97075,
    "lng": -94.41096,
    "tz": "America/Mexico_City"
  },
  {
    "id": 8582876,
    "parentId": 3522509,
    "country": "MX",
    "name": "Santa María Colotepec",
    "fullName": null,
    "lat": 15.86205,
    "lng": -96.93494,
    "tz": "America/Mexico_City"
  },
  {
    "id": 8582877,
    "parentId": 3522509,
    "country": "MX",
    "name": "Santa María Cortijo",
    "fullName": null,
    "lat": 16.4254,
    "lng": -98.32018,
    "tz": "America/Mexico_City"
  },
  {
    "id": 8582878,
    "parentId": 3522509,
    "country": "MX",
    "name": "Santa María Coyotepec",
    "fullName": null,
    "lat": 16.9713,
    "lng": -96.70262,
    "tz": "America/Mexico_City"
  },
  {
    "id": 8582883,
    "parentId": 3522509,
    "country": "MX",
    "name": "Santa María del Rosario",
    "fullName": null,
    "lat": 17.34848,
    "lng": -97.60247,
    "tz": "America/Mexico_City"
  },
  {
    "id": 8582884,
    "parentId": 3522509,
    "country": "MX",
    "name": "Santa María del Tule",
    "fullName": null,
    "lat": 17.03768,
    "lng": -96.62174,
    "tz": "America/Mexico_City"
  },
  {
    "id": 8582885,
    "parentId": 3522509,
    "country": "MX",
    "name": "Santa María Ecatepec",
    "fullName": null,
    "lat": 16.31419,
    "lng": -95.8529,
    "tz": "America/Mexico_City"
  },
  {
    "id": 8582886,
    "parentId": 3522509,
    "country": "MX",
    "name": "Santa María Guelacé",
    "fullName": null,
    "lat": 17.00151,
    "lng": -96.60946,
    "tz": "America/Mexico_City"
  },
  {
    "id": 8582887,
    "parentId": 3522509,
    "country": "MX",
    "name": "Santa María Guienagati",
    "fullName": null,
    "lat": 16.75239,
    "lng": -95.36862,
    "tz": "America/Mexico_City"
  },
  {
    "id": 8582888,
    "parentId": 3522509,
    "country": "MX",
    "name": "Santa María Huatulco",
    "fullName": null,
    "lat": 15.80609,
    "lng": -96.23209,
    "tz": "America/Mexico_City"
  },
  {
    "id": 8582889,
    "parentId": 3522509,
    "country": "MX",
    "name": "Santa María Huazolotitlán",
    "fullName": null,
    "lat": 16.22608,
    "lng": -97.93945,
    "tz": "America/Mexico_City"
  },
  {
    "id": 8582890,
    "parentId": 3522509,
    "country": "MX",
    "name": "Santa María Ipalapa",
    "fullName": null,
    "lat": 16.61419,
    "lng": -98.02088,
    "tz": "America/Mexico_City"
  },
  {
    "id": 8582891,
    "parentId": 3522509,
    "country": "MX",
    "name": "Santa María Ixcatlán",
    "fullName": null,
    "lat": 17.855,
    "lng": -97.19583,
    "tz": "America/Mexico_City"
  },
  {
    "id": 8582892,
    "parentId": 3522509,
    "country": "MX",
    "name": "Santa María Jacatepec",
    "fullName": null,
    "lat": 17.86343,
    "lng": -96.17377,
    "tz": "America/Mexico_City"
  },
  {
    "id": 8582893,
    "parentId": 3522509,
    "country": "MX",
    "name": "Santa María Jalapa del Marqués",
    "fullName": null,
    "lat": 16.49423,
    "lng": -95.4635,
    "tz": "America/Mexico_City"
  },
  {
    "id": 8582894,
    "parentId": 3522509,
    "country": "MX",
    "name": "Santa María Jaltianguis",
    "fullName": null,
    "lat": 17.36134,
    "lng": -96.52111,
    "tz": "America/Mexico_City"
  },
  {
    "id": 8582871,
    "parentId": 3522509,
    "country": "MX",
    "name": "Santa María la Asunción",
    "fullName": null,
    "lat": 18.10521,
    "lng": -96.81604,
    "tz": "America/Mexico_City"
  },
  {
    "id": 8582895,
    "parentId": 3522509,
    "country": "MX",
    "name": "Santa María Lachixío",
    "fullName": null,
    "lat": 16.73757,
    "lng": -97.04093,
    "tz": "America/Mexico_City"
  },
  {
    "id": 8582896,
    "parentId": 3522509,
    "country": "MX",
    "name": "Santa María Mixtequilla",
    "fullName": null,
    "lat": 16.39111,
    "lng": -95.27798,
    "tz": "America/Mexico_City"
  },
  {
    "id": 8582897,
    "parentId": 3522509,
    "country": "MX",
    "name": "Santa María Nativitas",
    "fullName": null,
    "lat": 17.64714,
    "lng": -97.32925,
    "tz": "America/Mexico_City"
  },
  {
    "id": 8582898,
    "parentId": 3522509,
    "country": "MX",
    "name": "Santa María Nduayaco",
    "fullName": null,
    "lat": 17.40832,
    "lng": -97.50586,
    "tz": "America/Mexico_City"
  },
  {
    "id": 8582899,
    "parentId": 3522509,
    "country": "MX",
    "name": "Santa María Ozolotepec",
    "fullName": null,
    "lat": 16.10099,
    "lng": -96.34824,
    "tz": "America/Mexico_City"
  },
  {
    "id": 8582900,
    "parentId": 3522509,
    "country": "MX",
    "name": "Santa María Pápalo",
    "fullName": null,
    "lat": 17.80729,
    "lng": -96.78378,
    "tz": "America/Mexico_City"
  },
  {
    "id": 8582901,
    "parentId": 3522509,
    "country": "MX",
    "name": "Santa María Peñoles",
    "fullName": null,
    "lat": 17.03501,
    "lng": -97.03014,
    "tz": "America/Mexico_City"
  },
  {
    "id": 8582902,
    "parentId": 3522509,
    "country": "MX",
    "name": "Santa María Petapa",
    "fullName": null,
    "lat": 16.88958,
    "lng": -95.03787,
    "tz": "America/Mexico_City"
  },
  {
    "id": 8582903,
    "parentId": 3522509,
    "country": "MX",
    "name": "Santa María Quiegolani",
    "fullName": null,
    "lat": 16.28978,
    "lng": -96.04156,
    "tz": "America/Mexico_City"
  },
  {
    "id": 8582904,
    "parentId": 3522509,
    "country": "MX",
    "name": "Santa María Sola",
    "fullName": null,
    "lat": 16.57462,
    "lng": -97.03128,
    "tz": "America/Mexico_City"
  },
  {
    "id": 8582905,
    "parentId": 3522509,
    "country": "MX",
    "name": "Santa María Tataltepec",
    "fullName": null,
    "lat": 17.13958,
    "lng": -97.39083,
    "tz": "America/Mexico_City"
  },
  {
    "id": 8582906,
    "parentId": 3522509,
    "country": "MX",
    "name": "Santa María Tecomavaca",
    "fullName": null,
    "lat": 17.97567,
    "lng": -97.005,
    "tz": "America/Mexico_City"
  },
  {
    "id": 8582907,
    "parentId": 3522509,
    "country": "MX",
    "name": "Santa María Temaxcalapa",
    "fullName": null,
    "lat": 17.38056,
    "lng": -96.16111,
    "tz": "America/Mexico_City"
  },
  {
    "id": 8582908,
    "parentId": 3522509,
    "country": "MX",
    "name": "Santa María Temaxcaltepec",
    "fullName": null,
    "lat": 16.16433,
    "lng": -97.1795,
    "tz": "America/Mexico_City"
  },
  {
    "id": 8582909,
    "parentId": 3522509,
    "country": "MX",
    "name": "Santa María Teopoxco",
    "fullName": null,
    "lat": 18.17731,
    "lng": -96.96618,
    "tz": "America/Mexico_City"
  },
  {
    "id": 8582910,
    "parentId": 3522509,
    "country": "MX",
    "name": "Santa María Tepantlali",
    "fullName": null,
    "lat": 16.98371,
    "lng": -95.9848,
    "tz": "America/Mexico_City"
  },
  {
    "id": 8582911,
    "parentId": 3522509,
    "country": "MX",
    "name": "Santa María Texcatitlán",
    "fullName": null,
    "lat": 17.71035,
    "lng": -97.06757,
    "tz": "America/Mexico_City"
  },
  {
    "id": 8582912,
    "parentId": 3522509,
    "country": "MX",
    "name": "Santa María Tlahuitoltepec",
    "fullName": null,
    "lat": 17.09981,
    "lng": -96.07177,
    "tz": "America/Mexico_City"
  },
  {
    "id": 8582913,
    "parentId": 3522509,
    "country": "MX",
    "name": "Santa María Tlalixtac",
    "fullName": null,
    "lat": 17.93618,
    "lng": -96.73402,
    "tz": "America/Mexico_City"
  },
  {
    "id": 8582914,
    "parentId": 3522509,
    "country": "MX",
    "name": "Santa María Tonameca",
    "fullName": null,
    "lat": 15.77467,
    "lng": -96.68054,
    "tz": "America/Mexico_City"
  },
  {
    "id": 8582915,
    "parentId": 3522509,
    "country": "MX",
    "name": "Santa María Totolapilla",
    "fullName": null,
    "lat": 16.6,
    "lng": -95.625,
    "tz": "America/Mexico_City"
  },
  {
    "id": 8582916,
    "parentId": 3522509,
    "country": "MX",
    "name": "Santa María Xadani",
    "fullName": null,
    "lat": 16.3789,
    "lng": -95.0284,
    "tz": "America/Mexico_City"
  },
  {
    "id": 8582917,
    "parentId": 3522509,
    "country": "MX",
    "name": "Santa María Yalina",
    "fullName": null,
    "lat": 17.23889,
    "lng": -96.26194,
    "tz": "America/Mexico_City"
  },
  {
    "id": 8582918,
    "parentId": 3522509,
    "country": "MX",
    "name": "Santa María Yavesía",
    "fullName": null,
    "lat": 17.2341,
    "lng": -96.43035,
    "tz": "America/Mexico_City"
  },
  {
    "id": 8582919,
    "parentId": 3522509,
    "country": "MX",
    "name": "Santa María Yolotepec",
    "fullName": null,
    "lat": 16.88134,
    "lng": -97.48014,
    "tz": "America/Mexico_City"
  },
  {
    "id": 8582920,
    "parentId": 3522509,
    "country": "MX",
    "name": "Santa María Yosoyúa",
    "fullName": null,
    "lat": 17.11366,
    "lng": -97.50657,
    "tz": "America/Mexico_City"
  },
  {
    "id": 8582921,
    "parentId": 3522509,
    "country": "MX",
    "name": "Santa María Yucuhiti",
    "fullName": null,
    "lat": 17.03102,
    "lng": -97.79851,
    "tz": "America/Mexico_City"
  },
  {
    "id": 8582922,
    "parentId": 3522509,
    "country": "MX",
    "name": "Santa María Zacatepec",
    "fullName": null,
    "lat": 16.77936,
    "lng": -97.99268,
    "tz": "America/Mexico_City"
  },
  {
    "id": 8582923,
    "parentId": 3522509,
    "country": "MX",
    "name": "Santa María Zaniza",
    "fullName": null,
    "lat": 16.65392,
    "lng": -97.33448,
    "tz": "America/Mexico_City"
  },
  {
    "id": 8582924,
    "parentId": 3522509,
    "country": "MX",
    "name": "Santa María Zoquitlán",
    "fullName": null,
    "lat": 16.54966,
    "lng": -96.35518,
    "tz": "America/Mexico_City"
  },
  {
    "id": 8582925,
    "parentId": 3522509,
    "country": "MX",
    "name": "Santiago Amoltepec",
    "fullName": null,
    "lat": 16.62754,
    "lng": -97.53224,
    "tz": "America/Mexico_City"
  },
  {
    "id": 8582926,
    "parentId": 3522509,
    "country": "MX",
    "name": "Santiago Apoala",
    "fullName": null,
    "lat": 17.65847,
    "lng": -97.13972,
    "tz": "America/Mexico_City"
  },
  {
    "id": 8582927,
    "parentId": 3522509,
    "country": "MX",
    "name": "Santiago Apóstol",
    "fullName": null,
    "lat": 16.80506,
    "lng": -96.71372,
    "tz": "America/Mexico_City"
  },
  {
    "id": 8582928,
    "parentId": 3522509,
    "country": "MX",
    "name": "Santiago Astata",
    "fullName": null,
    "lat": 15.94462,
    "lng": -95.68878,
    "tz": "America/Mexico_City"
  },
  {
    "id": 8582929,
    "parentId": 3522509,
    "country": "MX",
    "name": "Santiago Atitlán",
    "fullName": null,
    "lat": 17.0818,
    "lng": -95.92042,
    "tz": "America/Mexico_City"
  },
  {
    "id": 8582930,
    "parentId": 3522509,
    "country": "MX",
    "name": "Santiago Ayuquililla",
    "fullName": null,
    "lat": 17.92043,
    "lng": -97.96114,
    "tz": "America/Mexico_City"
  },
  {
    "id": 8582931,
    "parentId": 3522509,
    "country": "MX",
    "name": "Santiago Cacaloxtepec",
    "fullName": null,
    "lat": 17.73444,
    "lng": -97.74139,
    "tz": "America/Mexico_City"
  },
  {
    "id": 8582932,
    "parentId": 3522509,
    "country": "MX",
    "name": "Santiago Camotlán",
    "fullName": null,
    "lat": 17.55076,
    "lng": -96.17167,
    "tz": "America/Mexico_City"
  },
  {
    "id": 8582934,
    "parentId": 3522509,
    "country": "MX",
    "name": "Santiago Chazumba",
    "fullName": null,
    "lat": 18.19928,
    "lng": -97.70472,
    "tz": "America/Mexico_City"
  },
  {
    "id": 8582935,
    "parentId": 3522509,
    "country": "MX",
    "name": "Santiago Choápam",
    "fullName": null,
    "lat": 17.3765,
    "lng": -95.91608,
    "tz": "America/Mexico_City"
  },
  {
    "id": 8582933,
    "parentId": 3522509,
    "country": "MX",
    "name": "Santiago Comaltepec",
    "fullName": null,
    "lat": 17.61592,
    "lng": -96.39464,
    "tz": "America/Mexico_City"
  },
  {
    "id": 8582936,
    "parentId": 3522509,
    "country": "MX",
    "name": "Santiago del Río",
    "fullName": null,
    "lat": 17.44838,
    "lng": -98.09111,
    "tz": "America/Mexico_City"
  },
  {
    "id": 8582937,
    "parentId": 3522509,
    "country": "MX",
    "name": "Santiago Huajolotitlán",
    "fullName": null,
    "lat": 17.81749,
    "lng": -97.70985,
    "tz": "America/Mexico_City"
  },
  {
    "id": 8582938,
    "parentId": 3522509,
    "country": "MX",
    "name": "Santiago Huauclilla",
    "fullName": null,
    "lat": 17.47525,
    "lng": -97.06468,
    "tz": "America/Mexico_City"
  },
  {
    "id": 8582939,
    "parentId": 3522509,
    "country": "MX",
    "name": "Santiago Ihuitlán Plumas",
    "fullName": null,
    "lat": 17.88057,
    "lng": -97.43215,
    "tz": "America/Mexico_City"
  },
  {
    "id": 8582940,
    "parentId": 3522509,
    "country": "MX",
    "name": "Santiago Ixcuintepec",
    "fullName": null,
    "lat": 16.91553,
    "lng": -95.59227,
    "tz": "America/Mexico_City"
  },
  {
    "id": 8582941,
    "parentId": 3522509,
    "country": "MX",
    "name": "Santiago Ixtayutla",
    "fullName": null,
    "lat": 16.55038,
    "lng": -97.68257,
    "tz": "America/Mexico_City"
  },
  {
    "id": 8582942,
    "parentId": 3522509,
    "country": "MX",
    "name": "Santiago Jamiltepec",
    "fullName": null,
    "lat": 16.18102,
    "lng": -97.7776,
    "tz": "America/Mexico_City"
  },
  {
    "id": 8582943,
    "parentId": 3522509,
    "country": "MX",
    "name": "Santiago Jocotepec",
    "fullName": null,
    "lat": 17.66972,
    "lng": -95.96876,
    "tz": "America/Mexico_City"
  },
  {
    "id": 8582944,
    "parentId": 3522509,
    "country": "MX",
    "name": "Santiago Juxtlahuaca",
    "fullName": null,
    "lat": 17.21921,
    "lng": -97.99748,
    "tz": "America/Mexico_City"
  },
  {
    "id": 8582945,
    "parentId": 3522509,
    "country": "MX",
    "name": "Santiago Lachiguiri",
    "fullName": null,
    "lat": 16.76572,
    "lng": -95.52461,
    "tz": "America/Mexico_City"
  },
  {
    "id": 8582946,
    "parentId": 3522509,
    "country": "MX",
    "name": "Santiago Lalopa",
    "fullName": null,
    "lat": 17.41722,
    "lng": -96.25042,
    "tz": "America/Mexico_City"
  },
  {
    "id": 8582947,
    "parentId": 3522509,
    "country": "MX",
    "name": "Santiago Laollaga",
    "fullName": null,
    "lat": 16.62186,
    "lng": -95.23197,
    "tz": "America/Mexico_City"
  },
  {
    "id": 8582948,
    "parentId": 3522509,
    "country": "MX",
    "name": "Santiago Laxopa",
    "fullName": null,
    "lat": 17.22,
    "lng": -96.30597,
    "tz": "America/Mexico_City"
  },
  {
    "id": 8582949,
    "parentId": 3522509,
    "country": "MX",
    "name": "Santiago Llano Grande",
    "fullName": null,
    "lat": 16.49183,
    "lng": -98.27579,
    "tz": "America/Mexico_City"
  },
  {
    "id": 8582950,
    "parentId": 3522509,
    "country": "MX",
    "name": "Santiago Matatlán",
    "fullName": null,
    "lat": 16.83847,
    "lng": -96.42185,
    "tz": "America/Mexico_City"
  },
  {
    "id": 8582951,
    "parentId": 3522509,
    "country": "MX",
    "name": "Santiago Miltepec",
    "fullName": null,
    "lat": 17.98819,
    "lng": -97.69028,
    "tz": "America/Mexico_City"
  },
  {
    "id": 8582952,
    "parentId": 3522509,
    "country": "MX",
    "name": "Santiago Minas",
    "fullName": null,
    "lat": 16.43829,
    "lng": -97.24339,
    "tz": "America/Mexico_City"
  },
  {
    "id": 8582953,
    "parentId": 3522509,
    "country": "MX",
    "name": "Santiago Nacaltepec",
    "fullName": null,
    "lat": 17.52918,
    "lng": -96.92526,
    "tz": "America/Mexico_City"
  },
  {
    "id": 8582954,
    "parentId": 3522509,
    "country": "MX",
    "name": "Santiago Nejapilla",
    "fullName": null,
    "lat": 17.41939,
    "lng": -97.37339,
    "tz": "America/Mexico_City"
  },
  {
    "id": 8582537,
    "parentId": 3522509,
    "country": "MX",
    "name": "Santiago Niltepec",
    "fullName": null,
    "lat": 16.52438,
    "lng": -94.59337,
    "tz": "America/Mexico_City"
  },