[
  {
    "id": 6955066,
    "parentId": 3531011,
    "country": "MX",
    "name": "Acacoyagua",
    "fullName": null,
    "lat": 15.41414,
    "lng": -92.68169,
    "tz": "America/Mexico_City"
  },
  {
    "id": 6955067,
    "parentId": 3531011,
    "country": "MX",
    "name": "Acala",
    "fullName": null,
    "lat": 16.55394,
    "lng": -92.81765,
    "tz": "America/Mexico_City"
  },
  {
    "id": 6955068,
    "parentId": 3531011,
    "country": "MX",
    "name": "Acapetahua",
    "fullName": null,
    "lat": 15.28333,
    "lng": -92.68333,
    "tz": "America/Mexico_City"
  },
  {
    "id": 6955069,
    "parentId": 3531011,
    "country": "MX",
    "name": "Aldama",
    "fullName": null,
    "lat": 16.91667,
    "lng": -92.68333,
    "tz": "America/Mexico_City"
  },
  {
    "id": 6955070,
    "parentId": 3531011,
    "country": "MX",
    "name": "Altamirano",
    "fullName": null,
    "lat": 16.69868,
    "lng": -92.00981,
    "tz": "America/Mexico_City"
  },
  {
    "id": 6955071,
    "parentId": 3531011,
    "country": "MX",
    "name": "Amatán",
    "fullName": null,
    "lat": 17.36667,
    "lng": -92.81667,
    "tz": "America/Mexico_City"
  },
  {
    "id": 6955072,
    "parentId": 3531011,
    "country": "MX",
    "name": "Amatenango de la Frontera",
    "fullName": null,
    "lat": 15.43333,
    "lng": -92.11667,
    "tz": "America/Mexico_City"
  },
  {
    "id": 6955073,
    "parentId": 3531011,
    "country": "MX",
    "name": "Amatenango del Valle",
    "fullName": null,
    "lat": 16.53333,
    "lng": -92.43333,
    "tz": "America/Mexico_City"
  },
  {
    "id": 6955074,
    "parentId": 3531011,
    "country": "MX",
    "name": "Ángel Albino Corzo",
    "fullName": null,
    "lat": 15.86624,
    "lng": -92.72324,
    "tz": "America/Mexico_City"
  },
  {
    "id": 6955075,
    "parentId": 3531011,
    "country": "MX",
    "name": "Arriaga",
    "fullName": null,
    "lat": 16.235,
    "lng": -93.89556,
    "tz": "America/Mexico_City"
  },
  {
    "id": 6955076,
    "parentId": 3531011,
    "country": "MX",
    "name": "Bejucal de Ocampo",
    "fullName": null,
    "lat": 15.45,
    "lng": -92.16667,
    "tz": "America/Mexico_City"
  },
  {
    "id": 6955077,
    "parentId": 3531011,
    "country": "MX",
    "name": "Bella Vista",
    "fullName": null,
    "lat": 15.58333,
    "lng": -92.21667,
    "tz": "America/Mexico_City"
  },
  {
    "id": 6955078,
    "parentId": 3531011,
    "country": "MX",
    "name": "Benemérito de las Américas",
    "fullName": null,
    "lat": 16.51722,
    "lng": -90.65306,
    "tz": "America/Mexico_City"
  },
  {
    "id": 6955079,
    "parentId": 3531011,
    "country": "MX",
    "name": "Berriozábal",
    "fullName": null,
    "lat": 16.8,
    "lng": -93.26667,
    "tz": "America/Mexico_City"
  },
  {
    "id": 6955080,
    "parentId": 3531011,
    "country": "MX",
    "name": "Bochil",
    "fullName": null,
    "lat": 16.98333,
    "lng": -92.91667,
    "tz": "America/Mexico_City"
  },
  {
    "id": 6955082,
    "parentId": 3531011,
    "country": "MX",
    "name": "Cacahoatán",
    "fullName": null,
    "lat": 15.06151,
    "lng": -92.15881,
    "tz": "America/Mexico_City"
  },
  {
    "id": 6955083,
    "parentId": 3531011,
    "country": "MX",
    "name": "Catazajá",
    "fullName": null,
    "lat": 17.73333,
    "lng": -92.01667,
    "tz": "America/Mexico_City"
  },
  {
    "id": 6955084,
    "parentId": 3531011,
    "country": "MX",
    "name": "Chalchihuitán",
    "fullName": null,
    "lat": 16.96667,
    "lng": -92.65,
    "tz": "America/Mexico_City"
  },
  {
    "id": 6955085,
    "parentId": 3531011,
    "country": "MX",
    "name": "Chamula",
    "fullName": null,
    "lat": 16.78333,
    "lng": -92.68333,
    "tz": "America/Mexico_City"
  },
  {
    "id": 6955086,
    "parentId": 3531011,
    "country": "MX",
    "name": "Chanal",
    "fullName": null,
    "lat": 16.65395,
    "lng": -92.25014,
    "tz": "America/Mexico_City"
  },
  {
    "id": 6955087,
    "parentId": 3531011,
    "country": "MX",
    "name": "Chapultenango",
    "fullName": null,
    "lat": 17.33333,
    "lng": -93.13333,
    "tz": "America/Mexico_City"
  },
  {
    "id": 6955088,
    "parentId": 3531011,
    "country": "MX",
    "name": "Chenalhó",
    "fullName": null,
    "lat": 16.88333,
    "lng": -92.63333,
    "tz": "America/Mexico_City"
  },
  {
    "id": 6955089,
    "parentId": 3531011,
    "country": "MX",
    "name": "Chiapa de Corzo",
    "fullName": null,
    "lat": 16.70197,
    "lng": -93.00854,
    "tz": "America/Mexico_City"
  },
  {
    "id": 6955090,
    "parentId": 3531011,
    "country": "MX",
    "name": "Chiapilla",
    "fullName": null,
    "lat": 16.55397,
    "lng": -92.72594,
    "tz": "America/Mexico_City"
  },
  {
    "id": 6955091,
    "parentId": 3531011,
    "country": "MX",
    "name": "Chicoasén",
    "fullName": null,
    "lat": 16.96528,
    "lng": -93.10472,
    "tz": "America/Mexico_City"
  },
  {
    "id": 6955092,
    "parentId": 3531011,
    "country": "MX",
    "name": "Chicomuselo",
    "fullName": null,
    "lat": 15.76667,
    "lng": -92.26667,
    "tz": "America/Mexico_City"
  },
  {
    "id": 6955093,
    "parentId": 3531011,
    "country": "MX",
    "name": "Chilón",
    "fullName": null,
    "lat": 17.11667,
    "lng": -92.28333,
    "tz": "America/Mexico_City"
  },
  {
    "id": 6955094,
    "parentId": 3531011,
    "country": "MX",
    "name": "Cintalapa",
    "fullName": null,
    "lat": 16.68778,
    "lng": -93.71083,
    "tz": "America/Mexico_City"
  },
  {
    "id": 6955095,
    "parentId": 3531011,
    "country": "MX",
    "name": "Coapilla",
    "fullName": null,
    "lat": 17.13333,
    "lng": -93.16667,
    "tz": "America/Mexico_City"
  },
  {
    "id": 6955096,
    "parentId": 3531011,
    "country": "MX",
    "name": "Comitán Municipality",
    "fullName": null,
    "lat": 16.24105,
    "lng": -92.13203,
    "tz": "America/Mexico_City"
  },
  {
    "id": 6955098,
    "parentId": 3531011,
    "country": "MX",
    "name": "Copainalá",
    "fullName": null,
    "lat": 17.08333,
    "lng": -93.2,
    "tz": "America/Mexico_City"
  },
  {
    "id": 6955081,
    "parentId": 3531011,
    "country": "MX",
    "name": "El Bosque",
    "fullName": null,
    "lat": 17.06667,
    "lng": -92.71667,
    "tz": "America/Mexico_City"
  },
  {
    "id": 8581756,
    "parentId": 3531011,
    "country": "MX",
    "name": "El Porvenir",
    "fullName": null,
    "lat": 15.43092,
    "lng": -92.26447,
    "tz": "America/Mexico_City"
  },
  {
    "id": 6955099,
    "parentId": 3531011,
    "country": "MX",
    "name": "Escuintla",
    "fullName": null,
    "lat": 15.33333,
    "lng": -92.63333,
    "tz": "America/Mexico_City"
  },
  {
    "id": 6955100,
    "parentId": 3531011,
    "country": "MX",
    "name": "Francisco León",
    "fullName": null,
    "lat": 17.31667,
    "lng": -93.25,
    "tz": "America/Mexico_City"
  },
  {
    "id": 8583641,
    "parentId": 3531011,
    "country": "MX",
    "name": "Frontera Comalapa",
    "fullName": null,
    "lat": 15.74099,
    "lng": -92.07667,
    "tz": "America/Mexico_City"
  },
  {
    "id": 8581720,
    "parentId": 3531011,
    "country": "MX",
    "name": "Frontera Hidalgo",
    "fullName": null,
    "lat": 14.75148,
    "lng": -92.20712,
    "tz": "America/Mexico_City"
  },
  {
    "id": 8581722,
    "parentId": 3531011,
    "country": "MX",
    "name": "Huehuetán",
    "fullName": null,
    "lat": 15.03045,
    "lng": -92.40093,
    "tz": "America/Mexico_City"
  },
  {
    "id": 8581724,
    "parentId": 3531011,
    "country": "MX",
    "name": "Huitiupán",
    "fullName": null,
    "lat": 17.23899,
    "lng": -92.70811,
    "tz": "America/Mexico_City"
  },
  {
    "id": 8581723,
    "parentId": 3531011,
    "country": "MX",
    "name": "Huixtán",
    "fullName": null,
    "lat": 16.706,
    "lng": -92.40104,
    "tz": "America/Mexico_City"
  },
  {
    "id": 8581726,
    "parentId": 3531011,
    "country": "MX",
    "name": "Huixtla",
    "fullName": null,
    "lat": 15.14286,
    "lng": -92.5122,
    "tz": "America/Mexico_City"
  },
  {
    "id": 8581728,
    "parentId": 3531011,
    "country": "MX",
    "name": "Ixhuatán",
    "fullName": null,
    "lat": 17.29816,
    "lng": -93.00808,
    "tz": "America/Mexico_City"
  },
  {
    "id": 8581729,
    "parentId": 3531011,
    "country": "MX",
    "name": "Ixtacomitán",
    "fullName": null,
    "lat": 17.42668,
    "lng": -93.0943,
    "tz": "America/Mexico_City"
  },
  {
    "id": 8581730,
    "parentId": 3531011,
    "country": "MX",
    "name": "Ixtapa",
    "fullName": null,
    "lat": 16.81299,
    "lng": -92.91332,
    "tz": "America/Mexico_City"
  },
  {
    "id": 8581731,
    "parentId": 3531011,
    "country": "MX",
    "name": "Ixtapangajoya",
    "fullName": null,
    "lat": 17.47893,
    "lng": -92.98738,
    "tz": "America/Mexico_City"
  },
  {
    "id": 8581732,
    "parentId": 3531011,
    "country": "MX",
    "name": "Jiquipilas",
    "fullName": null,
    "lat": 16.56952,
    "lng": -93.64175,
    "tz": "America/Mexico_City"
  },
  {
    "id": 8581733,
    "parentId": 3531011,
    "country": "MX",
    "name": "Jitotol",
    "fullName": null,
    "lat": 17.0961,
    "lng": -92.83769,
    "tz": "America/Mexico_City"
  },
  {
    "id": 8581734,
    "parentId": 3531011,
    "country": "MX",
    "name": "Juárez",
    "fullName": null,
    "lat": 17.6938,
    "lng": -93.18834,
    "tz": "America/Mexico_City"
  },
  {
    "id": 6955097,
    "parentId": 3531011,
    "country": "MX",
    "name": "La Concordia",
    "fullName": null,
    "lat": 16.11667,
    "lng": -92.68333,
    "tz": "America/Mexico_City"
  },
  {
    "id": 8581721,
    "parentId": 3531011,
    "country": "MX",
    "name": "La Grandeza",
    "fullName": null,
    "lat": 15.50828,
    "lng": -92.22279,
    "tz": "America/Mexico_City"
  },
  {
    "id": 8581727,
    "parentId": 3531011,
    "country": "MX",
    "name": "La Independencia",
    "fullName": null,
    "lat": 16.21503,
    "lng": -91.74111,
    "tz": "America/Mexico_City"
  },
  {
    "id": 8581736,
    "parentId": 3531011,
    "country": "MX",
    "name": "La Libertad",
    "fullName": null,
    "lat": 17.57345,
    "lng": -91.74985,
    "tz": "America/Mexico_City"
  },
  {
    "id": 8581783,
    "parentId": 3531011,
    "country": "MX",
    "name": "La Trinitaria",
    "fullName": null,
    "lat": 16.01755,
    "lng": -91.93339,
    "tz": "America/Mexico_City"
  },
  {
    "id": 8581735,
    "parentId": 3531011,
    "country": "MX",
    "name": "Larráinzar",
    "fullName": null,
    "lat": 16.91366,
    "lng": -92.76373,
    "tz": "America/Mexico_City"
  },
  {
    "id": 8581738,
    "parentId": 3531011,
    "country": "MX",
    "name": "Las Margaritas",
    "fullName": null,
    "lat": 16.3856,
    "lng": -91.74028,
    "tz": "America/Mexico_City"
  },
  {
    "id": 8581761,
    "parentId": 3531011,
    "country": "MX",
    "name": "Las Rosas",
    "fullName": null,
    "lat": 16.35655,
    "lng": -92.37021,
    "tz": "America/Mexico_City"
  },
  {
    "id": 8581737,
    "parentId": 3531011,
    "country": "MX",
    "name": "Mapastepec",
    "fullName": null,
    "lat": 15.41979,
    "lng": -92.94922,
    "tz": "America/Mexico_City"
  },
  {
    "id": 8581795,
    "parentId": 3531011,
    "country": "MX",
    "name": "Maravilla Tenejapa",
    "fullName": null,
    "lat": 16.20391,
    "lng": -91.26093,
    "tz": "America/Mexico_City"
  },
  {
    "id": 8581796,
    "parentId": 3531011,
    "country": "MX",
    "name": "Marqués de Comillas",
    "fullName": null,
    "lat": 16.21471,
    "lng": -90.75917,
    "tz": "America/Mexico_City"
  },
  {
    "id": 8581739,
    "parentId": 3531011,
    "country": "MX",
    "name": "Mazapa de Madero",
    "fullName": null,
    "lat": 15.36461,
    "lng": -92.18762,
    "tz": "America/Mexico_City"
  },
  {
    "id": 8581740,
    "parentId": 3531011,
    "country": "MX",
    "name": "Mazatán",
    "fullName": null,
    "lat": 14.87945,
    "lng": -92.46766,
    "tz": "America/Mexico_City"
  },
  {
    "id": 8581741,
    "parentId": 3531011,
    "country": "MX",
    "name": "Metapa",
    "fullName": null,
    "lat": 14.82509,
    "lng": -92.19777,
    "tz": "America/Mexico_City"
  },
  {
    "id": 8581742,
    "parentId": 3531011,
    "country": "MX",
    "name": "Mitontic",
    "fullName": null,
    "lat": 16.8754,
    "lng": -92.5713,
    "tz": "America/Mexico_City"
  },
  {
    "id": 8581797,
    "parentId": 3531011,
    "country": "MX",
    "name": "Montecristo de Guerrero",
    "fullName": null,
    "lat": 15.67526,
    "lng": -92.64399,
    "tz": "America/Mexico_City"
  },
  {
    "id": 8581743,
    "parentId": 3531011,
    "country": "MX",
    "name": "Motozintla",
    "fullName": null,
    "lat": 15.29745,
    "lng": -92.34344,
    "tz": "America/Mexico_City"
  },
  {
    "id": 8581744,
    "parentId": 3531011,
    "country": "MX",
    "name": "Nicolás Ruíz",
    "fullName": null,
    "lat": 16.44833,
    "lng": -92.60361,
    "tz": "America/Mexico_City"
  },
  {
    "id": 8581745,
    "parentId": 3531011,
    "country": "MX",
    "name": "Ocosingo",
    "fullName": null,
    "lat": 16.8721,
    "lng": -91.80196,
    "tz": "America/Mexico_City"
  },
  {
    "id": 8581746,
    "parentId": 3531011,
    "country": "MX",
    "name": "Ocotepec",
    "fullName": null,
    "lat": 17.21915,
    "lng": -93.17244,
    "tz": "America/Mexico_City"
  },
  {
    "id": 8581747,
    "parentId": 3531011,
    "country": "MX",
    "name": "Ocozocoautla de Espinosa",
    "fullName": null,
    "lat": 16.78617,
    "lng": -93.43433,
    "tz": "America/Mexico_City"
  },
  {
    "id": 8581748,
    "parentId": 3531011,
    "country": "MX",
    "name": "Ostuacán",
    "fullName": null,
    "lat": 17.44081,
    "lng": -93.41707,
    "tz": "America/Mexico_City"
  },
  {
    "id": 8581749,
    "parentId": 3531011,
    "country": "MX",
    "name": "Osumacinta",
    "fullName": null,
    "lat": 16.8878,
    "lng": -93.07006,
    "tz": "America/Mexico_City"
  },
  {
    "id": 8581750,
    "parentId": 3531011,
    "country": "MX",
    "name": "Oxchuc",
    "fullName": null,
    "lat": 16.79884,
    "lng": -92.29757,
    "tz": "America/Mexico_City"
  },
  {
    "id": 8581751,
    "parentId": 3531011,
    "country": "MX",
    "name": "Palenque",
    "fullName": null,
    "lat": 17.50435,
    "lng": -91.89544,
    "tz": "America/Mexico_City"
  },
  {
    "id": 8581752,
    "parentId": 3531011,
    "country": "MX",
    "name": "Pantelhó",
    "fullName": null,
    "lat": 17.0637,
    "lng": -92.4552,
    "tz": "America/Mexico_City"
  },
  {
    "id": 8581753,
    "parentId": 3531011,
    "country": "MX",
    "name": "Pantepec",
    "fullName": null,
    "lat": 17.18721,
    "lng": -93.05422,
    "tz": "America/Mexico_City"
  },
  {
    "id": 8581754,
    "parentId": 3531011,
    "country": "MX",
    "name": "Pichucalco",
    "fullName": null,
    "lat": 17.53928,
    "lng": -93.16116,
    "tz": "America/Mexico_City"
  },
  {
    "id": 8581755,
    "parentId": 3531011,
    "country": "MX",
    "name": "Pijijiapan",
    "fullName": null,
    "lat": 15.64619,
    "lng": -93.20291,
    "tz": "America/Mexico_City"
  },
  {
    "id": 8581758,
    "parentId": 3531011,
    "country": "MX",
    "name": "Pueblo Nuevo Solistahuacán",
    "fullName": null,
    "lat": 17.21162,
    "lng": -92.85475,
    "tz": "America/Mexico_City"
  },
  {
    "id": 8581759,
    "parentId": 3531011,
    "country": "MX",
    "name": "Rayón",
    "fullName": null,
    "lat": 17.20063,
    "lng": -92.99756,
    "tz": "America/Mexico_City"
  },
  {
    "id": 8581760,
    "parentId": 3531011,
    "country": "MX",
    "name": "Reforma",
    "fullName": null,
    "lat": 17.86876,
    "lng": -93.22673,
    "tz": "America/Mexico_City"
  },
  {
    "id": 8581762,
    "parentId": 3531011,
    "country": "MX",
    "name": "Sabanilla",
    "fullName": null,
    "lat": 17.30308,
    "lng": -92.58368,
    "tz": "America/Mexico_City"
  },
  {
    "id": 8581763,
    "parentId": 3531011,
    "country": "MX",
    "name": "Salto de Agua",
    "fullName": null,
    "lat": 17.42001,
    "lng": -92.2064,
    "tz": "America/Mexico_City"
  },
  {
    "id": 8581798,
    "parentId": 3531011,
    "country": "MX",
    "name": "San Andrés Duraznal",
    "fullName": null,
    "lat": 17.15653,
    "lng": -92.79606,
    "tz": "America/Mexico_City"
  },
  {
    "id": 7778823,
    "parentId": 3531011,
    "country": "MX",
    "name": "San Cristobal De Casas",
    "fullName": null,
    "lat": 16.7,
    "lng": -92.6,
    "tz": "America/Mexico_City"
  },
  {
    "id": 8581764,
    "parentId": 3531011,
    "country": "MX",
    "name": "San Fernando",
    "fullName": null,
    "lat": 16.904,
    "lng": -93.22282,
    "tz": "America/Mexico_City"
  },
  {
    "id": 8581794,
    "parentId": 3531011,
    "country": "MX",
    "name": "San Juan Cancuc",
    "fullName": null,
    "lat": 16.94034,
    "lng": -92.38839,
    "tz": "America/Mexico_City"
  },
  {
    "id": 8581792,
    "parentId": 3531011,
    "country": "MX",
    "name": "San Lucas",
    "fullName": null,
    "lat": 16.60112,
    "lng": -92.69771,
    "tz": "America/Mexico_City"
  },
  {
    "id": 8581799,
    "parentId": 3531011,
    "country": "MX",
    "name": "Santiago el Pinar",
    "fullName": null,
    "lat": 16.94838,
    "lng": -92.72074,
    "tz": "America/Mexico_City"
  },
  {
    "id": 8581765,
    "parentId": 3531011,
    "country": "MX",
    "name": "Siltepec",
    "fullName": null,
    "lat": 15.55383,
    "lng": -92.43138,
    "tz": "America/Mexico_City"
  },
  {
    "id": 8581766,
    "parentId": 3531011,
    "country": "MX",
    "name": "Simojovel",
    "fullName": null,
    "lat": 17.14736,
    "lng": -92.67154,
    "tz": "America/Mexico_City"
  },
  {
    "id": 8581767,
    "parentId": 3531011,
    "country": "MX",
    "name": "Sitalá",
    "fullName": null,
    "lat": 17.03982,
    "lng": -92.35195,
    "tz": "America/Mexico_City"
  },
  {
    "id": 8581768,
    "parentId": 3531011,
    "country": "MX",
    "name": "Socoltenango",
    "fullName": null,
    "lat": 16.17412,
    "lng": -92.36658,
    "tz": "America/Mexico_City"
  },
  {
    "id": 8581769,
    "parentId": 3531011,
    "country": "MX",
    "name": "Solosuchiapa",
    "fullName": null,
    "lat": 17.39364,
    "lng": -93.01301,
    "tz": "America/Mexico_City"
  },
  {
    "id": 8581770,
    "parentId": 3531011,
    "country": "MX",
    "name": "Soyaló",
    "fullName": null,
    "lat": 16.91352,
    "lng": -92.96579,
    "tz": "America/Mexico_City"
  },
  {
    "id": 8581771,
    "parentId": 3531011,
    "country": "MX",
    "name": "Suchiapa",
    "fullName": null,
    "lat": 16.60775,
    "lng": -93.10003,
    "tz": "America/Mexico_City"
  },
  {
    "id": 8581772,
    "parentId": 3531011,
    "country": "MX",
    "name": "Suchiate",
    "fullName": null,
    "lat": 14.64138,
    "lng": -92.22252,
    "tz": "America/Mexico_City"
  },
  {
    "id": 8581773,
    "parentId": 3531011,
    "country": "MX",
    "name": "Sunuapa",
    "fullName": null,
    "lat": 17.48316,
    "lng": -93.24699,
    "tz": "America/Mexico_City"
  },
  {
    "id": 8581774,
    "parentId": 3531011,
    "country": "MX",
    "name": "Tapachula",
    "fullName": null,
    "lat": 14.94755,
    "lng": -92.30211,
    "tz": "America/Mexico_City"
  },
  {
    "id": 8581775,
    "parentId": 3531011,
    "country": "MX",
    "name": "Tapalapa",
    "fullName": null,
    "lat": 17.22618,
    "lng": -93.11552,
    "tz": "America/Mexico_City"
  },
  {
    "id": 8581776,
    "parentId": 3531011,
    "country": "MX",
    "name": "Tapilula",
    "fullName": null,
    "lat": 17.25355,
    "lng": -93.00933,
    "tz": "America/Mexico_City"
  },
  {
    "id": 8581777,
    "parentId": 3531011,
    "country": "MX",
    "name": "Tecpatán",
    "fullName": null,
    "lat": 17.18448,
    "lng": -93.47103,
    "tz": "America/Mexico_City"
  },
  {
    "id": 8581778,
    "parentId": 3531011,
    "country": "MX",
    "name": "Tenejapa",
    "fullName": null,
    "lat": 16.84359,
    "lng": -92.48134,
    "tz": "America/Mexico_City"
  },
  {
    "id": 8581779,
    "parentId": 3531011,
    "country": "MX",
    "name": "Teopisca",
    "fullName": null,
    "lat": 16.55969,
    "lng": -92.51672,
    "tz": "America/Mexico_City"
  },
  {
    "id": 8581780,
    "parentId": 3531011,
    "country": "MX",
    "name": "Tila",
    "fullName": null,
    "lat": 17.35066,
    "lng": -92.48176,
    "tz": "America/Mexico_City"
  },
  {
    "id": 8581781,
    "parentId": 3531011,
    "country": "MX",
    "name": "Tonalá",
    "fullName": null,
    "lat": 15.98275,
    "lng": -93.67062,
    "tz": "America/Mexico_City"
  },
  {
    "id": 8581782,
    "parentId": 3531011,
    "country": "MX",
    "name": "Totolapa",
    "fullName": null,
    "lat": 16.51695,
    "lng": -92.67359,
    "tz": "America/Mexico_City"
  },
  {
    "id": 8581784,
    "parentId": 3531011,
    "country": "MX",
    "name": "Tumbalá",
    "fullName": null,
    "lat": 17.3079,
    "lng": -92.27788,
    "tz": "America/Mexico_City"
  },
  {
    "id": 8581703,
    "parentId": 3531011,
    "country": "MX",
    "name": "Tuxtla Chico",
    "fullName": null,
    "lat": 14.92411,
    "lng": -92.18978,
    "tz": "America/Mexico_City"
  },
  {
    "id": 8581785,
    "parentId": 3531011,
    "country": "MX",
    "name": "Tuxtla Gutiérrez",
    "fullName": null,
    "lat": 16.70842,
    "lng": -93.13618,
    "tz": "America/Mexico_City"
  },
  {
    "id": 8581786,
    "parentId": 3531011,
    "country": "MX",
    "name": "Tuzantán",
    "fullName": null,
    "lat": 15.13561,
    "lng": -92.42137,
    "tz": "America/Mexico_City"
  },
  {
    "id": 8581787,
    "parentId": 3531011,
    "country": "MX",
    "name": "Tzimol",
    "fullName": null,
    "lat": 16.1212,
    "lng": -92.24463,
    "tz": "America/Mexico_City"
  },
  {
    "id": 8581788,
    "parentId": 3531011,
    "country": "MX",
    "name": "Unión Juárez",
    "fullName": null,
    "lat": 15.06191,
    "lng": -92.09668,
    "tz": "America/Mexico_City"
  },
  {
    "id": 8581716,
    "parentId": 3531011,
    "country": "MX",
    "name": "Venustiano Carranza",
    "fullName": null,
    "lat": 16.32314,
    "lng": -92.55844,
    "tz": "America/Mexico_City"
  },
  {
    "id": 8581757,
    "parentId": 3531011,
    "country": "MX",
    "name": "Villa Comaltitlán",
    "fullName": null,
    "lat": 15.18645,
    "lng": -92.59053,
    "tz": "America/Mexico_City"
  },
  {
    "id": 8581789,
    "parentId": 3531011,
    "country": "MX",
    "name": "Villa Corzo",
    "fullName": null,
    "lat": 16.11981,
    "lng": -93.20835,
    "tz": "America/Mexico_City"
  },
  {
    "id": 8581790,
    "parentId": 3531011,
    "country": "MX",
    "name": "Villaflores",
    "fullName": null,
    "lat": 16.34149,
    "lng": -93.33191,
    "tz": "America/Mexico_City"
  },
  {
    "id": 8581791,
    "parentId": 3531011,
    "country": "MX",
    "name": "Yajalón",
    "fullName": null,
    "lat": 17.18519,
    "lng": -92.32715,
    "tz": "America/Mexico_City"
  },
  {
    "id": 8581793,
    "parentId": 3531011,
    "country": "MX",
    "name": "Zinacantán",
    "fullName": null,
    "lat": 16.72425,
    "lng": -92.77572,
    "tz": "America/Mexico_City"
  }
]