[
  {
    "id": 6321929,
    "parentId": 3463930,
    "country": "BR",
    "name": "Afonso Cláudio",
    "fullName": null,
    "lat": -20.10512,
    "lng": -41.12422,
    "tz": "America/Sao_Paulo"
  },
  {
    "id": 6321931,
    "parentId": 3463930,
    "country": "BR",
    "name": "Água Doce do Norte",
    "fullName": null,
    "lat": -18.50646,
    "lng": -40.9919,
    "tz": "America/Bahia"
  },
  {
    "id": 6321930,
    "parentId": 3463930,
    "country": "BR",
    "name": "Águia Branca",
    "fullName": null,
    "lat": -18.99618,
    "lng": -40.70731,
    "tz": "America/Bahia"
  },
  {
    "id": 6324236,
    "parentId": 3463930,
    "country": "BR",
    "name": "Alegre",
    "fullName": null,
    "lat": -20.70897,
    "lng": -41.51937,
    "tz": "America/Sao_Paulo"
  },
  {
    "id": 6321932,
    "parentId": 3463930,
    "country": "BR",
    "name": "Alfredo Chaves",
    "fullName": null,
    "lat": -20.54245,
    "lng": -40.82368,
    "tz": "America/Sao_Paulo"
  },
  {
    "id": 6321933,
    "parentId": 3463930,
    "country": "BR",
    "name": "Alto Rio Novo",
    "fullName": null,
    "lat": -19.03248,
    "lng": -40.99144,
    "tz": "America/Bahia"
  },
  {
    "id": 6321934,
    "parentId": 3463930,
    "country": "BR",
    "name": "Anchieta",
    "fullName": null,
    "lat": -20.7342,
    "lng": -40.70056,
    "tz": "America/Sao_Paulo"
  },
  {
    "id": 6321935,
    "parentId": 3463930,
    "country": "BR",
    "name": "Apiacá",
    "fullName": null,
    "lat": -21.08025,
    "lng": -41.561,
    "tz": "America/Sao_Paulo"
  },
  {
    "id": 6321936,
    "parentId": 3463930,
    "country": "BR",
    "name": "Aracruz",
    "fullName": null,
    "lat": -19.81952,
    "lng": -40.19097,
    "tz": "America/Bahia"
  },
  {
    "id": 6321937,
    "parentId": 3463930,
    "country": "BR",
    "name": "Atílio Vivacqua",
    "fullName": null,
    "lat": -20.95472,
    "lng": -41.19096,
    "tz": "America/Sao_Paulo"
  },
  {
    "id": 6321938,
    "parentId": 3463930,
    "country": "BR",
    "name": "Baixo Guandu",
    "fullName": null,
    "lat": -19.52351,
    "lng": -40.9639,
    "tz": "America/Sao_Paulo"
  },
  {
    "id": 6321939,
    "parentId": 3463930,
    "country": "BR",
    "name": "Barra de São Francisco",
    "fullName": null,
    "lat": -18.63179,
    "lng": -40.80592,
    "tz": "America/Bahia"
  },
  {
    "id": 6321940,
    "parentId": 3463930,
    "country": "BR",
    "name": "Boa Esperança",
    "fullName": null,
    "lat": -18.48608,
    "lng": -40.34464,
    "tz": "America/Bahia"
  },
  {
    "id": 6321941,
    "parentId": 3463930,
    "country": "BR",
    "name": "Bom Jesus do Norte",
    "fullName": null,
    "lat": -21.08831,
    "lng": -41.63939,
    "tz": "America/Sao_Paulo"
  },
  {
    "id": 6321942,
    "parentId": 3463930,
    "country": "BR",
    "name": "Brejetuba",
    "fullName": null,
    "lat": -20.15621,
    "lng": -41.3065,
    "tz": "America/Sao_Paulo"
  },
  {
    "id": 6321943,
    "parentId": 3463930,
    "country": "BR",
    "name": "Cachoeiro de Itapemirim",
    "fullName": null,
    "lat": -20.76807,
    "lng": -41.19056,
    "tz": "America/Sao_Paulo"
  },
  {
    "id": 6321944,
    "parentId": 3463930,
    "country": "BR",
    "name": "Cariacica",
    "fullName": null,
    "lat": -20.3005,
    "lng": -40.46919,
    "tz": "America/Sao_Paulo"
  },
  {
    "id": 6321945,
    "parentId": 3463930,
    "country": "BR",
    "name": "Castelo",
    "fullName": null,
    "lat": -20.53672,
    "lng": -41.20474,
    "tz": "America/Sao_Paulo"
  },
  {
    "id": 6324152,
    "parentId": 3463930,
    "country": "BR",
    "name": "Colatina",
    "fullName": null,
    "lat": -19.4624,
    "lng": -40.66292,
    "tz": "America/Bahia"
  },
  {
    "id": 6321946,
    "parentId": 3463930,
    "country": "BR",
    "name": "Conceição da Barra",
    "fullName": null,
    "lat": -18.5854,
    "lng": -39.73618,
    "tz": "America/Bahia"
  },
  {
    "id": 6321947,
    "parentId": 3463930,
    "country": "BR",
    "name": "Conceição do Castelo",
    "fullName": null,
    "lat": -20.36226,
    "lng": -41.26622,
    "tz": "America/Sao_Paulo"
  },
  {
    "id": 6321948,
    "parentId": 3463930,
    "country": "BR",
    "name": "Divino de São Lourenço",
    "fullName": null,
    "lat": -20.59751,
    "lng": -41.72185,
    "tz": "America/Sao_Paulo"
  },
  {
    "id": 6321949,
    "parentId": 3463930,
    "country": "BR",
    "name": "Domingos Martins",
    "fullName": null,
    "lat": -20.32325,
    "lng": -40.82718,
    "tz": "America/Sao_Paulo"
  },
  {
    "id": 6321950,
    "parentId": 3463930,
    "country": "BR",
    "name": "Dores do Rio Preto",
    "fullName": null,
    "lat": -20.63511,
    "lng": -41.81208,
    "tz": "America/Sao_Paulo"
  },
  {
    "id": 6321951,
    "parentId": 3463930,
    "country": "BR",
    "name": "Ecoporanga",
    "fullName": null,
    "lat": -18.27297,
    "lng": -40.84932,
    "tz": "America/Bahia"
  },
  {
    "id": 6321952,
    "parentId": 3463930,
    "country": "BR",
    "name": "Fundão",
    "fullName": null,
    "lat": -19.98985,
    "lng": -40.31579,
    "tz": "America/Sao_Paulo"
  },
  {
    "id": 6324153,
    "parentId": 3463930,
    "country": "BR",
    "name": "Governador Lindenberg",
    "fullName": null,
    "lat": -19.20034,
    "lng": -40.4951,
    "tz": "America/Bahia"
  },
  {
    "id": 6321953,
    "parentId": 3463930,
    "country": "BR",
    "name": "Guaçuí",
    "fullName": null,
    "lat": -20.76804,
    "lng": -41.71116,
    "tz": "America/Sao_Paulo"
  },
  {
    "id": 6321954,
    "parentId": 3463930,
    "country": "BR",
    "name": "Guarapari",
    "fullName": null,
    "lat": -20.61026,
    "lng": -40.52739,
    "tz": "America/Sao_Paulo"
  },
  {
    "id": 6321955,
    "parentId": 3463930,
    "country": "BR",
    "name": "Ibatiba",
    "fullName": null,
    "lat": -20.27457,
    "lng": -41.55456,
    "tz": "America/Sao_Paulo"
  },
  {
    "id": 6321956,
    "parentId": 3463930,
    "country": "BR",
    "name": "Ibiraçu",
    "fullName": null,
    "lat": -19.81845,
    "lng": -40.42084,
    "tz": "America/Sao_Paulo"
  },
  {
    "id": 6321957,
    "parentId": 3463930,
    "country": "BR",
    "name": "Ibitirama",
    "fullName": null,
    "lat": -20.51148,
    "lng": -41.66962,
    "tz": "America/Sao_Paulo"
  },
  {
    "id": 6321958,
    "parentId": 3463930,
    "country": "BR",
    "name": "Iconha",
    "fullName": null,
    "lat": -20.74759,
    "lng": -40.8657,
    "tz": "America/Sao_Paulo"
  },
  {
    "id": 6321959,
    "parentId": 3463930,
    "country": "BR",
    "name": "Irupi",
    "fullName": null,
    "lat": -20.32689,
    "lng": -41.66014,
    "tz": "America/Sao_Paulo"
  },
  {
    "id": 6321960,
    "parentId": 3463930,
    "country": "BR",
    "name": "Itaguaçu",
    "fullName": null,
    "lat": -19.70999,
    "lng": -40.87311,
    "tz": "America/Sao_Paulo"
  },
  {
    "id": 6321961,
    "parentId": 3463930,
    "country": "BR",
    "name": "Itapemirim",
    "fullName": null,
    "lat": -20.98377,
    "lng": -40.96688,
    "tz": "America/Sao_Paulo"
  },
  {
    "id": 6321962,
    "parentId": 3463930,
    "country": "BR",
    "name": "Itarana",
    "fullName": null,
    "lat": -19.96043,
    "lng": -40.89303,
    "tz": "America/Sao_Paulo"
  },
  {
    "id": 6321963,
    "parentId": 3463930,
    "country": "BR",
    "name": "Iúna",
    "fullName": null,
    "lat": -20.35569,
    "lng": -41.78235,
    "tz": "America/Sao_Paulo"
  },
  {
    "id": 6321964,
    "parentId": 3463930,
    "country": "BR",
    "name": "Jaguaré",
    "fullName": null,
    "lat": -18.99187,
    "lng": -39.97521,
    "tz": "America/Bahia"
  },
  {
    "id": 6321965,
    "parentId": 3463930,
    "country": "BR",
    "name": "Jerônimo Monteiro",
    "fullName": null,
    "lat": -20.81243,
    "lng": -41.39536,
    "tz": "America/Sao_Paulo"
  },
  {
    "id": 6321966,
    "parentId": 3463930,
    "country": "BR",
    "name": "João Neiva",
    "fullName": null,
    "lat": -19.72534,
    "lng": -40.43763,
    "tz": "America/Sao_Paulo"
  },
  {
    "id": 6321967,
    "parentId": 3463930,
    "country": "BR",
    "name": "Laranja da Terra",
    "fullName": null,
    "lat": -19.86584,
    "lng": -41.05701,
    "tz": "America/Sao_Paulo"
  },
  {
    "id": 6321968,
    "parentId": 3463930,
    "country": "BR",
    "name": "Linhares",
    "fullName": null,
    "lat": -19.35774,
    "lng": -40.1469,
    "tz": "America/Bahia"
  },
  {
    "id": 6321969,
    "parentId": 3463930,
    "country": "BR",
    "name": "Mantenópolis",
    "fullName": null,
    "lat": -18.86614,
    "lng": -41.15626,
    "tz": "America/Bahia"
  },
  {
    "id": 6321970,
    "parentId": 3463930,
    "country": "BR",
    "name": "Marataízes",
    "fullName": null,
    "lat": -21.0948,
    "lng": -40.89904,
    "tz": "America/Sao_Paulo"
  },
  {
    "id": 6321971,
    "parentId": 3463930,
    "country": "BR",
    "name": "Marechal Floriano",
    "fullName": null,
    "lat": -20.43219,
    "lng": -40.76532,
    "tz": "America/Sao_Paulo"
  },
  {
    "id": 6321972,
    "parentId": 3463930,
    "country": "BR",
    "name": "Marilândia",
    "fullName": null,
    "lat": -19.42199,
    "lng": -40.52021,
    "tz": "America/Bahia"
  },
  {
    "id": 6321973,
    "parentId": 3463930,
    "country": "BR",
    "name": "Mimoso do Sul",
    "fullName": null,
    "lat": -21.10474,
    "lng": -41.37566,
    "tz": "America/Sao_Paulo"
  },
  {
    "id": 6321974,
    "parentId": 3463930,
    "country": "BR",
    "name": "Montanha",
    "fullName": null,
    "lat": -18.13613,
    "lng": -40.26104,
    "tz": "America/Bahia"
  },
  {
    "id": 6321975,
    "parentId": 3463930,
    "country": "BR",
    "name": "Mucurici",
    "fullName": null,
    "lat": -18.01367,
    "lng": -40.52534,
    "tz": "America/Bahia"
  },
  {
    "id": 6321976,
    "parentId": 3463930,
    "country": "BR",
    "name": "Muniz Freire",
    "fullName": null,
    "lat": -20.42272,
    "lng": -41.42575,
    "tz": "America/Sao_Paulo"
  },
  {
    "id": 6321977,
    "parentId": 3463930,
    "country": "BR",
    "name": "Muqui",
    "fullName": null,
    "lat": -20.91522,
    "lng": -41.30089,
    "tz": "America/Sao_Paulo"
  },
  {
    "id": 6321978,
    "parentId": 3463930,
    "country": "BR",
    "name": "Nova Venécia",
    "fullName": null,
    "lat": -18.69841,
    "lng": -40.52277,
    "tz": "America/Bahia"
  },
  {
    "id": 6321979,
    "parentId": 3463930,
    "country": "BR",
    "name": "Pancas",
    "fullName": null,
    "lat": -19.15538,
    "lng": -40.8176,
    "tz": "America/Bahia"
  },
  {
    "id": 6321980,
    "parentId": 3463930,
    "country": "BR",
    "name": "Pedro Canário",
    "fullName": null,
    "lat": -18.20359,
    "lng": -40.03155,
    "tz": "America/Bahia"
  },
  {
    "id": 6321981,
    "parentId": 3463930,
    "country": "BR",
    "name": "Pinheiros",
    "fullName": null,
    "lat": -18.34486,
    "lng": -40.20984,
    "tz": "America/Bahia"
  },
  {
    "id": 6321982,
    "parentId": 3463930,
    "country": "BR",
    "name": "Piúma",
    "fullName": null,
    "lat": -20.83106,
    "lng": -40.72932,
    "tz": "America/Sao_Paulo"
  },
  {
    "id": 6321983,
    "parentId": 3463930,
    "country": "BR",
    "name": "Ponto Belo",
    "fullName": null,
    "lat": -18.25222,
    "lng": -40.49863,
    "tz": "America/Bahia"
  },
  {
    "id": 6321984,
    "parentId": 3463930,
    "country": "BR",
    "name": "Presidente Kennedy",
    "fullName": null,
    "lat": -21.14995,
    "lng": -41.07293,
    "tz": "America/Sao_Paulo"
  },
  {
    "id": 6321985,
    "parentId": 3463930,
    "country": "BR",
    "name": "Rio Bananal",
    "fullName": null,
    "lat": -19.22377,
    "lng": -40.35938,
    "tz": "America/Bahia"
  },
  {
    "id": 6321986,
    "parentId": 3463930,
    "country": "BR",
    "name": "Rio Novo do Sul",
    "fullName": null,
    "lat": -20.78326,
    "lng": -40.93976,
    "tz": "America/Sao_Paulo"
  },
  {
    "id": 6324202,
    "parentId": 3463930,
    "country": "BR",
    "name": "Santa Leopoldina",
    "fullName": null,
    "lat": -20.11953,
    "lng": -40.57331,
    "tz": "America/Sao_Paulo"
  },
  {
    "id": 6324203,
    "parentId": 3463930,
    "country": "BR",
    "name": "Santa Maria de Jetibá",
    "fullName": null,
    "lat": -20.09186,
    "lng": -40.80101,
    "tz": "America/Sao_Paulo"
  },
  {
    "id": 6321987,
    "parentId": 3463930,
    "country": "BR",
    "name": "Santa Teresa",
    "fullName": null,
    "lat": -19.89624,
    "lng": -40.65665,
    "tz": "America/Sao_Paulo"
  },
  {
    "id": 6321988,
    "parentId": 3463930,
    "country": "BR",
    "name": "São Domingos do Norte",
    "fullName": null,
    "lat": -19.1297,
    "lng": -40.55454,
    "tz": "America/Bahia"
  },
  {
    "id": 6321989,
    "parentId": 3463930,
    "country": "BR",
    "name": "São Gabriel da Palha",
    "fullName": null,
    "lat": -18.97356,
    "lng": -40.52522,
    "tz": "America/Bahia"
  },
  {
    "id": 6319100,
    "parentId": 3463930,
    "country": "BR",
    "name": "São José do Calçado",
    "fullName": null,
    "lat": -20.98599,
    "lng": -41.66419,
    "tz": "America/Sao_Paulo"
  },
  {
    "id": 6321990,
    "parentId": 3463930,
    "country": "BR",
    "name": "São Mateus",
    "fullName": null,
    "lat": -18.78622,
    "lng": -40.05515,
    "tz": "America/Bahia"
  },
  {
    "id": 6321991,
    "parentId": 3463930,
    "country": "BR",
    "name": "São Roque do Canaã",
    "fullName": null,
    "lat": -19.73027,
    "lng": -40.67143,
    "tz": "America/Sao_Paulo"
  },
  {
    "id": 6321992,
    "parentId": 3463930,
    "country": "BR",
    "name": "Serra",
    "fullName": null,
    "lat": -20.10822,
    "lng": -40.30186,
    "tz": "America/Sao_Paulo"
  },
  {
    "id": 6321993,
    "parentId": 3463930,
    "country": "BR",
    "name": "Sooretama",
    "fullName": null,
    "lat": -19.08218,
    "lng": -40.14134,
    "tz": "America/Bahia"
  },
  {
    "id": 6321994,
    "parentId": 3463930,
    "country": "BR",
    "name": "Vargem Alta",
    "fullName": null,
    "lat": -20.64727,
    "lng": -41.00855,
    "tz": "America/Sao_Paulo"
  },
  {
    "id": 6321995,
    "parentId": 3463930,
    "country": "BR",
    "name": "Venda Nova do Imigrante",
    "fullName": null,
    "lat": -20.38487,
    "lng": -41.13539,
    "tz": "America/Sao_Paulo"
  },
  {
    "id": 6321996,
    "parentId": 3463930,
    "country": "BR",
    "name": "Viana",
    "fullName": null,
    "lat": -20.36757,
    "lng": -40.51413,
    "tz": "America/Sao_Paulo"
  },
  {
    "id": 6321997,
    "parentId": 3463930,
    "country": "BR",
    "name": "Vila Pavão",
    "fullName": null,
    "lat": -18.61186,
    "lng": -40.65163,
    "tz": "America/Bahia"
  },
  {
    "id": 6321998,
    "parentId": 3463930,
    "country": "BR",
    "name": "Vila Valério",
    "fullName": null,
    "lat": -18.97995,
    "lng": -40.36633,
    "tz": "America/Bahia"
  },
  {
    "id": 6321999,
    "parentId": 3463930,
    "country": "BR",
    "name": "Vila Velha",
    "fullName": null,
    "lat": -20.38479,
    "lng": -40.32262,
    "tz": "America/Sao_Paulo"
  },
  {
    "id": 6322000,
    "parentId": 3463930,
    "country": "BR",
    "name": "Vitória",
    "fullName": null,
    "lat": -20.2856,
    "lng": -40.31916,
    "tz": "America/Sao_Paulo"
  }
]