[
  {
    "id": 8583859,
    "parentId": 3514211,
    "country": "MX",
    "name": "Abalá",
    "fullName": null,
    "lat": 20.66493,
    "lng": -89.65672,
    "tz": "America/Merida"
  },
  {
    "id": 8583860,
    "parentId": 3514211,
    "country": "MX",
    "name": "Acanceh",
    "fullName": null,
    "lat": 20.84219,
    "lng": -89.45344,
    "tz": "America/Merida"
  },
  {
    "id": 8583861,
    "parentId": 3514211,
    "country": "MX",
    "name": "Akil",
    "fullName": null,
    "lat": 20.26401,
    "lng": -89.34852,
    "tz": "America/Merida"
  },
  {
    "id": 8583862,
    "parentId": 3514211,
    "country": "MX",
    "name": "Baca",
    "fullName": null,
    "lat": 21.11581,
    "lng": -89.40203,
    "tz": "America/Merida"
  },
  {
    "id": 8583863,
    "parentId": 3514211,
    "country": "MX",
    "name": "Bokobá",
    "fullName": null,
    "lat": 21.00641,
    "lng": -89.17641,
    "tz": "America/Merida"
  },
  {
    "id": 8583864,
    "parentId": 3514211,
    "country": "MX",
    "name": "Buctzotz",
    "fullName": null,
    "lat": 21.22372,
    "lng": -88.6698,
    "tz": "America/Merida"
  },
  {
    "id": 8583865,
    "parentId": 3514211,
    "country": "MX",
    "name": "Cacalchén",
    "fullName": null,
    "lat": 20.98804,
    "lng": -89.23802,
    "tz": "America/Merida"
  },
  {
    "id": 8583866,
    "parentId": 3514211,
    "country": "MX",
    "name": "Calotmul",
    "fullName": null,
    "lat": 21.02494,
    "lng": -88.12581,
    "tz": "America/Merida"
  },
  {
    "id": 8583867,
    "parentId": 3514211,
    "country": "MX",
    "name": "Cansahcab",
    "fullName": null,
    "lat": 21.16578,
    "lng": -89.08882,
    "tz": "America/Merida"
  },
  {
    "id": 8583868,
    "parentId": 3514211,
    "country": "MX",
    "name": "Cantamayec",
    "fullName": null,
    "lat": 20.43186,
    "lng": -89.07176,
    "tz": "America/Merida"
  },
  {
    "id": 8583869,
    "parentId": 3514211,
    "country": "MX",
    "name": "Celestún",
    "fullName": null,
    "lat": 20.8871,
    "lng": -90.30855,
    "tz": "America/Merida"
  },
  {
    "id": 8583870,
    "parentId": 3514211,
    "country": "MX",
    "name": "Cenotillo",
    "fullName": null,
    "lat": 21.06401,
    "lng": -88.58387,
    "tz": "America/Merida"
  },
  {
    "id": 8583874,
    "parentId": 3514211,
    "country": "MX",
    "name": "Chacsinkín",
    "fullName": null,
    "lat": 20.18176,
    "lng": -89.00786,
    "tz": "America/Merida"
  },
  {
    "id": 8583875,
    "parentId": 3514211,
    "country": "MX",
    "name": "Chankom",
    "fullName": null,
    "lat": 20.49656,
    "lng": -88.56928,
    "tz": "America/Merida"
  },
  {
    "id": 8583876,
    "parentId": 3514211,
    "country": "MX",
    "name": "Chapab",
    "fullName": null,
    "lat": 20.48633,
    "lng": -89.46779,
    "tz": "America/Merida"
  },
  {
    "id": 8583877,
    "parentId": 3514211,
    "country": "MX",
    "name": "Chemax",
    "fullName": null,
    "lat": 20.72491,
    "lng": -87.8794,
    "tz": "America/Merida"
  },
  {
    "id": 8583879,
    "parentId": 3514211,
    "country": "MX",
    "name": "Chichimilá",
    "fullName": null,
    "lat": 20.46641,
    "lng": -88.18044,
    "tz": "America/Merida"
  },
  {
    "id": 8583878,
    "parentId": 3514211,
    "country": "MX",
    "name": "Chicxulub Pueblo",
    "fullName": null,
    "lat": 21.14527,
    "lng": -89.51331,
    "tz": "America/Merida"
  },
  {
    "id": 8583880,
    "parentId": 3514211,
    "country": "MX",
    "name": "Chikindzonot",
    "fullName": null,
    "lat": 20.26024,
    "lng": -88.5471,
    "tz": "America/Merida"
  },
  {
    "id": 8583881,
    "parentId": 3514211,
    "country": "MX",
    "name": "Chocholá",
    "fullName": null,
    "lat": 20.75112,
    "lng": -89.84547,
    "tz": "America/Merida"
  },
  {
    "id": 8583882,
    "parentId": 3514211,
    "country": "MX",
    "name": "Chumayel",
    "fullName": null,
    "lat": 20.45356,
    "lng": -89.29321,
    "tz": "America/Merida"
  },
  {
    "id": 8583871,
    "parentId": 3514211,
    "country": "MX",
    "name": "Conkal",
    "fullName": null,
    "lat": 21.08143,
    "lng": -89.51683,
    "tz": "America/Merida"
  },
  {
    "id": 8583872,
    "parentId": 3514211,
    "country": "MX",
    "name": "Cuncunul",
    "fullName": null,
    "lat": 20.62333,
    "lng": -88.34637,
    "tz": "America/Merida"
  },
  {
    "id": 8583873,
    "parentId": 3514211,
    "country": "MX",
    "name": "Cuzamá",
    "fullName": null,
    "lat": 20.72176,
    "lng": -89.33463,
    "tz": "America/Merida"
  },
  {
    "id": 8583883,
    "parentId": 3514211,
    "country": "MX",
    "name": "Dzán",
    "fullName": null,
    "lat": 20.39036,
    "lng": -89.46185,
    "tz": "America/Merida"
  },
  {
    "id": 8583884,
    "parentId": 3514211,
    "country": "MX",
    "name": "Dzemul",
    "fullName": null,
    "lat": 21.24856,
    "lng": -89.3322,
    "tz": "America/Merida"
  },
  {
    "id": 8583885,
    "parentId": 3514211,
    "country": "MX",
    "name": "Dzidzantún",
    "fullName": null,
    "lat": 21.28932,
    "lng": -89.02844,
    "tz": "America/Merida"
  },
  {
    "id": 8583886,
    "parentId": 3514211,
    "country": "MX",
    "name": "Dzilam de Bravo",
    "fullName": null,
    "lat": 21.43361,
    "lng": -88.66838,
    "tz": "America/Merida"
  },
  {
    "id": 8583887,
    "parentId": 3514211,
    "country": "MX",
    "name": "Dzilam González",
    "fullName": null,
    "lat": 21.33587,
    "lng": -88.72289,
    "tz": "America/Merida"
  },
  {
    "id": 8583888,
    "parentId": 3514211,
    "country": "MX",
    "name": "Dzitás",
    "fullName": null,
    "lat": 20.82771,
    "lng": -88.52059,
    "tz": "America/Merida"
  },
  {
    "id": 8583889,
    "parentId": 3514211,
    "country": "MX",
    "name": "Dzoncauich",
    "fullName": null,
    "lat": 21.09826,
    "lng": -88.85402,
    "tz": "America/Merida"
  },
  {
    "id": 8583890,
    "parentId": 3514211,
    "country": "MX",
    "name": "Espita",
    "fullName": null,
    "lat": 21.03516,
    "lng": -88.36453,
    "tz": "America/Merida"
  },
  {
    "id": 8583891,
    "parentId": 3514211,
    "country": "MX",
    "name": "Halachó",
    "fullName": null,
    "lat": 20.50588,
    "lng": -90.11384,
    "tz": "America/Merida"
  },
  {
    "id": 8583892,
    "parentId": 3514211,
    "country": "MX",
    "name": "Hocabá",
    "fullName": null,
    "lat": 20.80841,
    "lng": -89.2379,
    "tz": "America/Merida"
  },
  {
    "id": 8583893,
    "parentId": 3514211,
    "country": "MX",
    "name": "Hoctún",
    "fullName": null,
    "lat": 20.87271,
    "lng": -89.19647,
    "tz": "America/Merida"
  },
  {
    "id": 8583894,
    "parentId": 3514211,
    "country": "MX",
    "name": "Homún",
    "fullName": null,
    "lat": 20.69058,
    "lng": -89.24464,
    "tz": "America/Merida"
  },
  {
    "id": 8583895,
    "parentId": 3514211,
    "country": "MX",
    "name": "Huhí",
    "fullName": null,
    "lat": 20.70776,
    "lng": -89.15234,
    "tz": "America/Merida"
  },
  {
    "id": 8583896,
    "parentId": 3514211,
    "country": "MX",
    "name": "Hunucmá",
    "fullName": null,
    "lat": 21.03093,
    "lng": -89.88047,
    "tz": "America/Merida"
  },
  {
    "id": 8583897,
    "parentId": 3514211,
    "country": "MX",
    "name": "Ixil",
    "fullName": null,
    "lat": 21.17804,
    "lng": -89.47924,
    "tz": "America/Merida"
  },
  {
    "id": 8583898,
    "parentId": 3514211,
    "country": "MX",
    "name": "Izamal",
    "fullName": null,
    "lat": 20.93137,
    "lng": -88.99658,
    "tz": "America/Merida"
  },
  {
    "id": 8583899,
    "parentId": 3514211,
    "country": "MX",
    "name": "Kanasín",
    "fullName": null,
    "lat": 20.92563,
    "lng": -89.53277,
    "tz": "America/Merida"
  },
  {
    "id": 8583900,
    "parentId": 3514211,
    "country": "MX",
    "name": "Kantunil",
    "fullName": null,
    "lat": 20.78056,
    "lng": -88.99986,
    "tz": "America/Merida"
  },
  {
    "id": 8583901,
    "parentId": 3514211,
    "country": "MX",
    "name": "Kaua",
    "fullName": null,
    "lat": 20.62476,
    "lng": -88.4244,
    "tz": "America/Merida"
  },
  {
    "id": 8583902,
    "parentId": 3514211,
    "country": "MX",
    "name": "Kinchil",
    "fullName": null,
    "lat": 20.88263,
    "lng": -90.00967,
    "tz": "America/Merida"
  },
  {
    "id": 8583903,
    "parentId": 3514211,
    "country": "MX",
    "name": "Kopomá",
    "fullName": null,
    "lat": 20.64258,
    "lng": -89.90765,
    "tz": "America/Merida"
  },
  {
    "id": 8583904,
    "parentId": 3514211,
    "country": "MX",
    "name": "Mama",
    "fullName": null,
    "lat": 20.49667,
    "lng": -89.37694,
    "tz": "America/Merida"
  },
  {
    "id": 8583905,
    "parentId": 3514211,
    "country": "MX",
    "name": "Maní",
    "fullName": null,
    "lat": 20.37097,
    "lng": -89.3776,
    "tz": "America/Merida"
  },
  {
    "id": 8583906,
    "parentId": 3514211,
    "country": "MX",
    "name": "Maxcanú",
    "fullName": null,
    "lat": 20.62478,
    "lng": -90.04978,
    "tz": "America/Merida"
  },
  {
    "id": 8583907,
    "parentId": 3514211,
    "country": "MX",
    "name": "Mayapán",
    "fullName": null,
    "lat": 20.49482,
    "lng": -89.19105,
    "tz": "America/Merida"
  },
  {
    "id": 8583908,
    "parentId": 3514211,
    "country": "MX",
    "name": "Mérida",
    "fullName": null,
    "lat": 20.99521,
    "lng": -89.61615,
    "tz": "America/Merida"
  },
  {
    "id": 8583909,
    "parentId": 3514211,
    "country": "MX",
    "name": "Mocochá",
    "fullName": null,
    "lat": 21.111,
    "lng": -89.45403,
    "tz": "America/Merida"
  },
  {
    "id": 8583910,
    "parentId": 3514211,
    "country": "MX",
    "name": "Motul",
    "fullName": null,
    "lat": 21.12101,
    "lng": -89.28499,
    "tz": "America/Merida"
  },
  {
    "id": 8583911,
    "parentId": 3514211,
    "country": "MX",
    "name": "Muna",
    "fullName": null,
    "lat": 20.48149,
    "lng": -89.72276,
    "tz": "America/Merida"
  },
  {
    "id": 8583912,
    "parentId": 3514211,
    "country": "MX",
    "name": "Muxupip",
    "fullName": null,
    "lat": 21.04728,
    "lng": -89.3281,
    "tz": "America/Merida"
  },
  {
    "id": 8583913,
    "parentId": 3514211,
    "country": "MX",
    "name": "Opichén",
    "fullName": null,
    "lat": 20.55769,
    "lng": -89.8724,
    "tz": "America/Merida"
  },
  {
    "id": 8583914,
    "parentId": 3514211,
    "country": "MX",
    "name": "Oxkutzcab",
    "fullName": null,
    "lat": 20.24086,
    "lng": -89.446,
    "tz": "America/Merida"
  },
  {
    "id": 8583915,
    "parentId": 3514211,
    "country": "MX",
    "name": "Panabá",
    "fullName": null,
    "lat": 21.3465,
    "lng": -88.29604,
    "tz": "America/Merida"
  },
  {
    "id": 8583916,
    "parentId": 3514211,
    "country": "MX",
    "name": "Peto",
    "fullName": null,
    "lat": 20.07423,
    "lng": -88.84425,
    "tz": "America/Merida"
  },
  {
    "id": 8583917,
    "parentId": 3514211,
    "country": "MX",
    "name": "Progreso",
    "fullName": null,
    "lat": 21.23521,
    "lng": -89.62047,
    "tz": "America/Merida"
  },
  {
    "id": 8583918,
    "parentId": 3514211,
    "country": "MX",
    "name": "Quintana Roo",
    "fullName": null,
    "lat": 20.84464,
    "lng": -88.65081,
    "tz": "America/Merida"
  },
  {
    "id": 8583919,
    "parentId": 3514211,
    "country": "MX",
    "name": "Río Lagartos",
    "fullName": null,
    "lat": 21.50241,
    "lng": -88.12443,
    "tz": "America/Merida"
  },
  {
    "id": 8583920,
    "parentId": 3514211,
    "country": "MX",
    "name": "Sacalum",
    "fullName": null,
    "lat": 20.51975,
    "lng": -89.60895,
    "tz": "America/Merida"
  },
  {
    "id": 8583921,
    "parentId": 3514211,
    "country": "MX",
    "name": "Samahil",
    "fullName": null,
    "lat": 20.86433,
    "lng": -89.91398,
    "tz": "America/Merida"
  },
  {
    "id": 8583923,
    "parentId": 3514211,
    "country": "MX",
    "name": "San Felipe",
    "fullName": null,
    "lat": 21.4616,
    "lng": -88.2667,
    "tz": "America/Merida"
  },
  {
    "id": 8583922,
    "parentId": 3514211,
    "country": "MX",
    "name": "Sanahcat",
    "fullName": null,
    "lat": 20.77587,
    "lng": -89.21091,
    "tz": "America/Merida"
  },
  {
    "id": 8583924,
    "parentId": 3514211,
    "country": "MX",
    "name": "Santa Elena",
    "fullName": null,
    "lat": 20.30981,
    "lng": -89.71265,
    "tz": "America/Merida"
  },
  {
    "id": 8583925,
    "parentId": 3514211,
    "country": "MX",
    "name": "Seyé",
    "fullName": null,
    "lat": 20.85171,
    "lng": -89.37289,
    "tz": "America/Merida"
  },
  {
    "id": 8583926,
    "parentId": 3514211,
    "country": "MX",
    "name": "Sinanché",
    "fullName": null,
    "lat": 21.27623,
    "lng": -89.20096,
    "tz": "America/Merida"
  },
  {
    "id": 8583927,
    "parentId": 3514211,
    "country": "MX",
    "name": "Sotuta",
    "fullName": null,
    "lat": 20.59803,
    "lng": -89.00441,
    "tz": "America/Merida"
  },
  {
    "id": 8583928,
    "parentId": 3514211,
    "country": "MX",
    "name": "Sucilá",
    "fullName": null,
    "lat": 21.21247,
    "lng": -88.37851,
    "tz": "America/Merida"
  },
  {
    "id": 8583929,
    "parentId": 3514211,
    "country": "MX",
    "name": "Sudzal",
    "fullName": null,
    "lat": 20.81427,
    "lng": -88.9003,
    "tz": "America/Merida"
  },
  {
    "id": 8583186,
    "parentId": 3514211,
    "country": "MX",
    "name": "Suma",
    "fullName": null,
    "lat": 21.10591,
    "lng": -89.15487,
    "tz": "America/Merida"
  },
  {
    "id": 8583291,
    "parentId": 3514211,
    "country": "MX",
    "name": "Tahdziú",
    "fullName": null,
    "lat": 20.24217,
    "lng": -88.90977,
    "tz": "America/Merida"
  },
  {
    "id": 8583930,
    "parentId": 3514211,
    "country": "MX",
    "name": "Tahmek",
    "fullName": null,
    "lat": 20.88158,
    "lng": -89.28249,
    "tz": "America/Merida"
  },
  {
    "id": 8583931,
    "parentId": 3514211,
    "country": "MX",
    "name": "Teabo",
    "fullName": null,
    "lat": 20.38771,
    "lng": -89.24207,
    "tz": "America/Merida"
  },
  {
    "id": 8583932,
    "parentId": 3514211,
    "country": "MX",
    "name": "Tecoh",
    "fullName": null,
    "lat": 20.6964,
    "lng": -89.45174,
    "tz": "America/Merida"
  },
  {
    "id": 8583933,
    "parentId": 3514211,
    "country": "MX",
    "name": "Tekal de Venegas",
    "fullName": null,
    "lat": 21.01672,
    "lng": -88.86104,
    "tz": "America/Merida"
  },
  {
    "id": 8583934,
    "parentId": 3514211,
    "country": "MX",
    "name": "Tekantó",
    "fullName": null,
    "lat": 21.00585,
    "lng": -89.10552,
    "tz": "America/Merida"
  },
  {
    "id": 8583935,
    "parentId": 3514211,
    "country": "MX",
    "name": "Tekax",
    "fullName": null,
    "lat": 20.04039,
    "lng": -89.26448,
    "tz": "America/Merida"
  },
  {
    "id": 8583936,
    "parentId": 3514211,
    "country": "MX",
    "name": "Tekit",
    "fullName": null,
    "lat": 20.55055,
    "lng": -89.28731,
    "tz": "America/Merida"
  },
  {
    "id": 8583937,
    "parentId": 3514211,
    "country": "MX",
    "name": "Tekom",
    "fullName": null,
    "lat": 20.5302,
    "lng": -88.34591,
    "tz": "America/Merida"
  },
  {
    "id": 8583938,
    "parentId": 3514211,
    "country": "MX",
    "name": "Telchac Pueblo",
    "fullName": null,
    "lat": 21.19578,
    "lng": -89.26957,
    "tz": "America/Merida"
  },
  {
    "id": 8583939,
    "parentId": 3514211,
    "country": "MX",
    "name": "Telchac Puerto",
    "fullName": null,
    "lat": 21.31359,
    "lng": -89.26463,
    "tz": "America/Merida"
  },
  {
    "id": 8583940,
    "parentId": 3514211,
    "country": "MX",
    "name": "Temax",
    "fullName": null,
    "lat": 21.16136,
    "lng": -88.90675,
    "tz": "America/Merida"
  },
  {
    "id": 8583941,
    "parentId": 3514211,
    "country": "MX",
    "name": "Temozón",
    "fullName": null,
    "lat": 20.86318,
    "lng": -88.12128,
    "tz": "America/Merida"
  },
  {
    "id": 8583942,
    "parentId": 3514211,
    "country": "MX",
    "name": "Tepakán",
    "fullName": null,
    "lat": 21.06185,
    "lng": -89.0224,
    "tz": "America/Merida"
  },
  {
    "id": 8583943,
    "parentId": 3514211,
    "country": "MX",
    "name": "Tetiz",
    "fullName": null,
    "lat": 20.97038,
    "lng": -89.95657,
    "tz": "America/Merida"
  },
  {
    "id": 8583944,
    "parentId": 3514211,
    "country": "MX",
    "name": "Teya",
    "fullName": null,
    "lat": 21.06848,
    "lng": -89.07142,
    "tz": "America/Merida"
  },
  {
    "id": 8583945,
    "parentId": 3514211,
    "country": "MX",
    "name": "Ticul",
    "fullName": null,
    "lat": 20.38016,
    "lng": -89.52709,
    "tz": "America/Merida"
  },
  {
    "id": 8583946,
    "parentId": 3514211,
    "country": "MX",
    "name": "Timucuy",
    "fullName": null,
    "lat": 20.83178,
    "lng": -89.52744,
    "tz": "America/Merida"
  },
  {
    "id": 8583947,
    "parentId": 3514211,
    "country": "MX",
    "name": "Tinum",
    "fullName": null,
    "lat": 20.70004,
    "lng": -88.51631,
    "tz": "America/Merida"
  },
  {
    "id": 8583948,
    "parentId": 3514211,
    "country": "MX",
    "name": "Tixcacalcupul",
    "fullName": null,
    "lat": 20.43929,
    "lng": -88.30028,
    "tz": "America/Merida"
  },
  {
    "id": 8583949,
    "parentId": 3514211,
    "country": "MX",
    "name": "Tixkokob",
    "fullName": null,
    "lat": 20.9811,
    "lng": -89.38062,
    "tz": "America/Merida"
  },
  {
    "id": 8583950,
    "parentId": 3514211,
    "country": "MX",
    "name": "Tixmehuac",
    "fullName": null,
    "lat": 20.24682,
    "lng": -89.08695,
    "tz": "America/Merida"
  },
  {
    "id": 8583951,
    "parentId": 3514211,
    "country": "MX",
    "name": "Tixpéhual",
    "fullName": null,
    "lat": 20.96761,
    "lng": -89.46744,
    "tz": "America/Merida"
  },
  {
    "id": 8583952,
    "parentId": 3514211,
    "country": "MX",
    "name": "Tizimín",
    "fullName": null,
    "lat": 21.23622,
    "lng": -87.95756,
    "tz": "America/Merida"
  },
  {
    "id": 8583953,
    "parentId": 3514211,
    "country": "MX",
    "name": "Tunkás",
    "fullName": null,
    "lat": 20.89032,
    "lng": -88.75337,
    "tz": "America/Merida"
  },
  {
    "id": 8583954,
    "parentId": 3514211,
    "country": "MX",
    "name": "Tzucacab",
    "fullName": null,
    "lat": 19.96002,
    "lng": -89.03651,
    "tz": "America/Merida"
  },
  {
    "id": 8583955,
    "parentId": 3514211,
    "country": "MX",
    "name": "Uayma",
    "fullName": null,
    "lat": 20.74392,
    "lng": -88.35224,
    "tz": "America/Merida"
  },
  {
    "id": 8583956,
    "parentId": 3514211,
    "country": "MX",
    "name": "Ucú",
    "fullName": null,
    "lat": 21.0261,
    "lng": -89.73921,
    "tz": "America/Merida"
  },
  {
    "id": 8583957,
    "parentId": 3514211,
    "country": "MX",
    "name": "Umán",
    "fullName": null,
    "lat": 20.86575,
    "lng": -89.76093,
    "tz": "America/Merida"
  },
  {
    "id": 8583958,
    "parentId": 3514211,
    "country": "MX",
    "name": "Valladolid",
    "fullName": null,
    "lat": 20.68604,
    "lng": -88.12406,
    "tz": "America/Merida"
  },
  {
    "id": 8583959,
    "parentId": 3514211,
    "country": "MX",
    "name": "Xocchel",
    "fullName": null,
    "lat": 20.8199,
    "lng": -89.15064,
    "tz": "America/Merida"
  },
  {
    "id": 8583960,
    "parentId": 3514211,
    "country": "MX",
    "name": "Yaxcabá",
    "fullName": null,
    "lat": 20.47252,
    "lng": -88.78048,
    "tz": "America/Merida"
  },
  {
    "id": 8583961,
    "parentId": 3514211,
    "country": "MX",
    "name": "Yaxkukul",
    "fullName": null,
    "lat": 21.05623,
    "lng": -89.43443,
    "tz": "America/Merida"
  },
  {
    "id": 8583962,
    "parentId": 3514211,
    "country": "MX",
    "name": "Yobaín",
    "fullName": null,
    "lat": 21.28304,
    "lng": -89.11893,
    "tz": "America/Merida"
  }
]