[
  {
    "id": 8582258,
    "parentId": 3995955,
    "country": "MX",
    "name": "Acuitzio",
    "fullName": null,
    "lat": 19.47178,
    "lng": -101.32921,
    "tz": "America/Mexico_City"
  },
  {
    "id": 8582259,
    "parentId": 3995955,
    "country": "MX",
    "name": "Aguililla",
    "fullName": null,
    "lat": 18.76833,
    "lng": -102.76541,
    "tz": "America/Mexico_City"
  },
  {
    "id": 8582348,
    "parentId": 3995955,
    "country": "MX",
    "name": "Álvaro Obregón",
    "fullName": null,
    "lat": 19.85984,
    "lng": -101.02153,
    "tz": "America/Mexico_City"
  },
  {
    "id": 8582260,
    "parentId": 3995955,
    "country": "MX",
    "name": "Angamacutiro",
    "fullName": null,
    "lat": 20.13444,
    "lng": -101.72696,
    "tz": "America/Mexico_City"
  },
  {
    "id": 8582261,
    "parentId": 3995955,
    "country": "MX",
    "name": "Angangueo",
    "fullName": null,
    "lat": 19.62239,
    "lng": -100.30179,
    "tz": "America/Mexico_City"
  },
  {
    "id": 8582262,
    "parentId": 3995955,
    "country": "MX",
    "name": "Apatzingán",
    "fullName": null,
    "lat": 18.98843,
    "lng": -102.42183,
    "tz": "America/Mexico_City"
  },
  {
    "id": 8582263,
    "parentId": 3995955,
    "country": "MX",
    "name": "Aporo",
    "fullName": null,
    "lat": 19.65192,
    "lng": -100.39583,
    "tz": "America/Mexico_City"
  },
  {
    "id": 8582264,
    "parentId": 3995955,
    "country": "MX",
    "name": "Aquila",
    "fullName": null,
    "lat": 18.37585,
    "lng": -103.2231,
    "tz": "America/Mexico_City"
  },
  {
    "id": 8582265,
    "parentId": 3995955,
    "country": "MX",
    "name": "Ario",
    "fullName": null,
    "lat": 19.16471,
    "lng": -101.70663,
    "tz": "America/Mexico_City"
  },
  {
    "id": 8582266,
    "parentId": 3995955,
    "country": "MX",
    "name": "Arteaga",
    "fullName": null,
    "lat": 18.3222,
    "lng": -102.37006,
    "tz": "America/Mexico_City"
  },
  {
    "id": 8582267,
    "parentId": 3995955,
    "country": "MX",
    "name": "Briseñas",
    "fullName": null,
    "lat": 20.25149,
    "lng": -102.57124,
    "tz": "America/Mexico_City"
  },
  {
    "id": 8582268,
    "parentId": 3995955,
    "country": "MX",
    "name": "Buenavista",
    "fullName": null,
    "lat": 19.18802,
    "lng": -102.58471,
    "tz": "America/Mexico_City"
  },
  {
    "id": 8582269,
    "parentId": 3995955,
    "country": "MX",
    "name": "Carácuaro",
    "fullName": null,
    "lat": 18.98513,
    "lng": -101.04164,
    "tz": "America/Mexico_City"
  },
  {
    "id": 8582277,
    "parentId": 3995955,
    "country": "MX",
    "name": "Charapan",
    "fullName": null,
    "lat": 19.6578,
    "lng": -102.24526,
    "tz": "America/Mexico_City"
  },
  {
    "id": 8582278,
    "parentId": 3995955,
    "country": "MX",
    "name": "Charo",
    "fullName": null,
    "lat": 19.66465,
    "lng": -101.01489,
    "tz": "America/Mexico_City"
  },
  {
    "id": 8582279,
    "parentId": 3995955,
    "country": "MX",
    "name": "Chavinda",
    "fullName": null,
    "lat": 20.04768,
    "lng": -102.43914,
    "tz": "America/Mexico_City"
  },
  {
    "id": 8582280,
    "parentId": 3995955,
    "country": "MX",
    "name": "Cherán",
    "fullName": null,
    "lat": 19.7041,
    "lng": -101.997,
    "tz": "America/Mexico_City"
  },
  {
    "id": 8582281,
    "parentId": 3995955,
    "country": "MX",
    "name": "Chilchota",
    "fullName": null,
    "lat": 19.8419,
    "lng": -102.08477,
    "tz": "America/Mexico_City"
  },
  {
    "id": 8582282,
    "parentId": 3995955,
    "country": "MX",
    "name": "Chinicuila",
    "fullName": null,
    "lat": 18.72234,
    "lng": -103.3903,
    "tz": "America/Mexico_City"
  },
  {
    "id": 8582283,
    "parentId": 3995955,
    "country": "MX",
    "name": "Chucándiro",
    "fullName": null,
    "lat": 19.89149,
    "lng": -101.34831,
    "tz": "America/Mexico_City"
  },
  {
    "id": 8582284,
    "parentId": 3995955,
    "country": "MX",
    "name": "Churintzio",
    "fullName": null,
    "lat": 20.12849,
    "lng": -102.08104,
    "tz": "America/Mexico_City"
  },
  {
    "id": 8582285,
    "parentId": 3995955,
    "country": "MX",
    "name": "Churumuco",
    "fullName": null,
    "lat": 18.70629,
    "lng": -101.60986,
    "tz": "America/Mexico_City"
  },
  {
    "id": 8582270,
    "parentId": 3995955,
    "country": "MX",
    "name": "Coahuayana",
    "fullName": null,
    "lat": 18.72911,
    "lng": -103.63713,
    "tz": "America/Mexico_City"
  },
  {
    "id": 8582271,
    "parentId": 3995955,
    "country": "MX",
    "name": "Coalcomán de Vázquez Pallares",
    "fullName": null,
    "lat": 18.66781,
    "lng": -103.10387,
    "tz": "America/Mexico_City"
  },
  {
    "id": 8582272,
    "parentId": 3995955,
    "country": "MX",
    "name": "Coeneo",
    "fullName": null,
    "lat": 19.81067,
    "lng": -101.61956,
    "tz": "America/Mexico_City"
  },
  {
    "id": 8582331,
    "parentId": 3995955,
    "country": "MX",
    "name": "Cojumatlán de Régules",
    "fullName": null,
    "lat": 20.11396,
    "lng": -102.87005,
    "tz": "America/Mexico_City"
  },
  {
    "id": 8582273,
    "parentId": 3995955,
    "country": "MX",
    "name": "Contepec",
    "fullName": null,
    "lat": 19.95493,
    "lng": -100.21235,
    "tz": "America/Mexico_City"
  },
  {
    "id": 8582274,
    "parentId": 3995955,
    "country": "MX",
    "name": "Copándaro",
    "fullName": null,
    "lat": 19.88939,
    "lng": -101.23889,
    "tz": "America/Mexico_City"
  },
  {
    "id": 8582275,
    "parentId": 3995955,
    "country": "MX",
    "name": "Cotija",
    "fullName": null,
    "lat": 19.74808,
    "lng": -102.70878,
    "tz": "America/Mexico_City"
  },
  {
    "id": 8582276,
    "parentId": 3995955,
    "country": "MX",
    "name": "Cuitzeo",
    "fullName": null,
    "lat": 19.99585,
    "lng": -101.14315,
    "tz": "America/Mexico_City"
  },
  {
    "id": 8582286,
    "parentId": 3995955,
    "country": "MX",
    "name": "Ecuandureo",
    "fullName": null,
    "lat": 20.15203,
    "lng": -102.2254,
    "tz": "America/Mexico_City"
  },
  {
    "id": 8582287,
    "parentId": 3995955,
    "country": "MX",
    "name": "Epitacio Huerta",
    "fullName": null,
    "lat": 20.14661,
    "lng": -100.28577,
    "tz": "America/Mexico_City"
  },
  {
    "id": 8582288,
    "parentId": 3995955,
    "country": "MX",
    "name": "Erongarícuaro",
    "fullName": null,
    "lat": 19.59342,
    "lng": -101.72001,
    "tz": "America/Mexico_City"
  },
  {
    "id": 8582289,
    "parentId": 3995955,
    "country": "MX",
    "name": "Gabriel Zamora",
    "fullName": null,
    "lat": 19.17456,
    "lng": -102.01722,
    "tz": "America/Mexico_City"
  },
  {
    "id": 8582291,
    "parentId": 3995955,
    "country": "MX",
    "name": "Hidalgo",
    "fullName": null,
    "lat": 19.58866,
    "lng": -100.6709,
    "tz": "America/Mexico_City"
  },
  {
    "id": 8582293,
    "parentId": 3995955,
    "country": "MX",
    "name": "Huandacareo",
    "fullName": null,
    "lat": 19.97831,
    "lng": -101.28509,
    "tz": "America/Mexico_City"
  },
  {
    "id": 8582294,
    "parentId": 3995955,
    "country": "MX",
    "name": "Huaniqueo",
    "fullName": null,
    "lat": 19.89465,
    "lng": -101.51221,
    "tz": "America/Mexico_City"
  },
  {
    "id": 8582295,
    "parentId": 3995955,
    "country": "MX",
    "name": "Huetamo",
    "fullName": null,
    "lat": 18.6577,
    "lng": -101.05964,
    "tz": "America/Mexico_City"
  },
  {
    "id": 8582296,
    "parentId": 3995955,
    "country": "MX",
    "name": "Huiramba",
    "fullName": null,
    "lat": 19.52645,
    "lng": -101.45959,
    "tz": "America/Mexico_City"
  },
  {
    "id": 8582297,
    "parentId": 3995955,
    "country": "MX",
    "name": "Indaparapeo",
    "fullName": null,
    "lat": 19.75994,
    "lng": -100.94535,
    "tz": "America/Mexico_City"
  },
  {
    "id": 8582298,
    "parentId": 3995955,
    "country": "MX",
    "name": "Irimbo",
    "fullName": null,
    "lat": 19.7076,
    "lng": -100.46354,
    "tz": "America/Mexico_City"
  },
  {
    "id": 8582299,
    "parentId": 3995955,
    "country": "MX",
    "name": "Ixtlán",
    "fullName": null,
    "lat": 20.14426,
    "lng": -102.4107,
    "tz": "America/Mexico_City"
  },
  {
    "id": 8582300,
    "parentId": 3995955,
    "country": "MX",
    "name": "Jacona",
    "fullName": null,
    "lat": 19.94951,
    "lng": -102.31788,
    "tz": "America/Mexico_City"
  },
  {
    "id": 8582301,
    "parentId": 3995955,
    "country": "MX",
    "name": "Jiménez",
    "fullName": null,
    "lat": 19.92392,
    "lng": -101.72895,
    "tz": "America/Mexico_City"
  },
  {
    "id": 8582302,
    "parentId": 3995955,
    "country": "MX",
    "name": "Jiquilpan",
    "fullName": null,
    "lat": 19.98474,
    "lng": -102.75099,
    "tz": "America/Mexico_City"
  },
  {
    "id": 8582369,
    "parentId": 3995955,
    "country": "MX",
    "name": "José Sixto Verduzco",
    "fullName": null,
    "lat": 20.27506,
    "lng": -101.5643,
    "tz": "America/Mexico_City"
  },
  {
    "id": 8582303,
    "parentId": 3995955,
    "country": "MX",
    "name": "Juárez",
    "fullName": null,
    "lat": 19.30398,
    "lng": -100.43243,
    "tz": "America/Mexico_City"
  },
  {
    "id": 8582304,
    "parentId": 3995955,
    "country": "MX",
    "name": "Jungapeo",
    "fullName": null,
    "lat": 19.44836,
    "lng": -100.51448,
    "tz": "America/Mexico_City"
  },
  {
    "id": 8582292,
    "parentId": 3995955,
    "country": "MX",
    "name": "La Huacana",
    "fullName": null,
    "lat": 18.88776,
    "lng": -101.87491,
    "tz": "America/Mexico_City"
  },
  {
    "id": 8582326,
    "parentId": 3995955,
    "country": "MX",
    "name": "La Piedad",
    "fullName": null,
    "lat": 20.31674,
    "lng": -102.03114,
    "tz": "America/Mexico_City"
  },
  {
    "id": 8582305,
    "parentId": 3995955,
    "country": "MX",
    "name": "Lagunillas",
    "fullName": null,
    "lat": 19.5707,
    "lng": -101.41941,
    "tz": "America/Mexico_City"
  },
  {
    "id": 8582309,
    "parentId": 3995955,
    "country": "MX",
    "name": "Lázaro Cárdenas",
    "fullName": null,
    "lat": 18.07126,
    "lng": -102.3822,
    "tz": "America/Mexico_City"
  },
  {
    "id": 8582332,
    "parentId": 3995955,
    "country": "MX",
    "name": "Los Reyes",
    "fullName": null,
    "lat": 19.64909,
    "lng": -102.41364,
    "tz": "America/Mexico_City"
  },
  {
    "id": 8582306,
    "parentId": 3995955,
    "country": "MX",
    "name": "Madero",
    "fullName": null,
    "lat": 19.33549,
    "lng": -101.15479,
    "tz": "America/Mexico_City"
  },
  {
    "id": 8582307,
    "parentId": 3995955,
    "country": "MX",
    "name": "Maravatío",
    "fullName": null,
    "lat": 19.89016,
    "lng": -100.4237,
    "tz": "America/Mexico_City"
  },
  {
    "id": 8582308,
    "parentId": 3995955,
    "country": "MX",
    "name": "Marcos Castellanos",
    "fullName": null,
    "lat": 20.03513,
    "lng": -102.97274,
    "tz": "America/Mexico_City"
  },
  {
    "id": 8582310,
    "parentId": 3995955,
    "country": "MX",
    "name": "Morelia",
    "fullName": null,
    "lat": 19.65344,
    "lng": -101.25202,
    "tz": "America/Mexico_City"
  },
  {
    "id": 8582311,
    "parentId": 3995955,
    "country": "MX",
    "name": "Morelos",
    "fullName": null,
    "lat": 19.99269,
    "lng": -101.43651,
    "tz": "America/Mexico_City"
  },
  {
    "id": 8582312,
    "parentId": 3995955,
    "country": "MX",
    "name": "Múgica",
    "fullName": null,
    "lat": 18.98592,
    "lng": -102.12132,
    "tz": "America/Mexico_City"
  },
  {
    "id": 8582313,
    "parentId": 3995955,
    "country": "MX",
    "name": "Nahuatzen",
    "fullName": null,
    "lat": 19.63029,
    "lng": -101.89599,
    "tz": "America/Mexico_City"
  },
  {
    "id": 8582314,
    "parentId": 3995955,
    "country": "MX",
    "name": "Nocupétaro",
    "fullName": null,
    "lat": 19.11303,
    "lng": -101.2125,
    "tz": "America/Mexico_City"
  },
  {
    "id": 8582315,
    "parentId": 3995955,
    "country": "MX",
    "name": "Nuevo Parangaricutiro",
    "fullName": null,
    "lat": 19.39221,
    "lng": -102.18391,
    "tz": "America/Mexico_City"
  },
  {
    "id": 8582316,
    "parentId": 3995955,
    "country": "MX",
    "name": "Nuevo Urecho",
    "fullName": null,
    "lat": 19.15417,
    "lng": -101.86134,
    "tz": "America/Mexico_City"
  },
  {
    "id": 8582317,
    "parentId": 3995955,
    "country": "MX",
    "name": "Numarán",
    "fullName": null,
    "lat": 20.27263,
    "lng": -101.96295,
    "tz": "America/Mexico_City"
  },
  {
    "id": 8582318,
    "parentId": 3995955,
    "country": "MX",
    "name": "Ocampo",
    "fullName": null,
    "lat": 19.58442,
    "lng": -100.3422,
    "tz": "America/Mexico_City"
  },
  {
    "id": 8582319,
    "parentId": 3995955,
    "country": "MX",
    "name": "Pajacuarán",
    "fullName": null,
    "lat": 20.13484,
    "lng": -102.52589,
    "tz": "America/Mexico_City"
  },
  {
    "id": 8582320,
    "parentId": 3995955,
    "country": "MX",
    "name": "Panindícuaro",
    "fullName": null,
    "lat": 20.01155,
    "lng": -101.76462,
    "tz": "America/Mexico_City"
  },
  {
    "id": 8582322,
    "parentId": 3995955,
    "country": "MX",
    "name": "Paracho",
    "fullName": null,
    "lat": 19.64825,
    "lng": -102.06505,
    "tz": "America/Mexico_City"
  },
  {
    "id": 8582321,
    "parentId": 3995955,
    "country": "MX",
    "name": "Parácuaro",
    "fullName": null,
    "lat": 19.04798,
    "lng": -102.22357,
    "tz": "America/Mexico_City"
  },
  {
    "id": 8582323,
    "parentId": 3995955,
    "country": "MX",
    "name": "Pátzcuaro",
    "fullName": null,
    "lat": 19.508,
    "lng": -101.58501,
    "tz": "America/Mexico_City"
  },
  {
    "id": 8582324,
    "parentId": 3995955,
    "country": "MX",
    "name": "Penjamillo",
    "fullName": null,
    "lat": 20.13411,
    "lng": -101.9126,
    "tz": "America/Mexico_City"
  },
  {
    "id": 8582325,
    "parentId": 3995955,
    "country": "MX",
    "name": "Peribán",
    "fullName": null,
    "lat": 19.50441,
    "lng": -102.42772,
    "tz": "America/Mexico_City"
  },
  {
    "id": 8582327,
    "parentId": 3995955,
    "country": "MX",
    "name": "Purépero",
    "fullName": null,
    "lat": 19.90546,
    "lng": -101.99704,
    "tz": "America/Mexico_City"
  },
  {
    "id": 8582328,
    "parentId": 3995955,
    "country": "MX",
    "name": "Puruándiro",
    "fullName": null,
    "lat": 20.11211,
    "lng": -101.5235,
    "tz": "America/Mexico_City"
  },
  {
    "id": 8582329,
    "parentId": 3995955,
    "country": "MX",
    "name": "Queréndaro",
    "fullName": null,
    "lat": 19.69745,
    "lng": -100.84379,
    "tz": "America/Mexico_City"
  },
  {
    "id": 8582330,
    "parentId": 3995955,
    "country": "MX",
    "name": "Quiroga",
    "fullName": null,
    "lat": 19.67203,
    "lng": -101.54393,
    "tz": "America/Mexico_City"
  },
  {
    "id": 8582333,
    "parentId": 3995955,
    "country": "MX",
    "name": "Sahuayo",
    "fullName": null,
    "lat": 20.05792,
    "lng": -102.75119,
    "tz": "America/Mexico_City"
  },
  {
    "id": 8582336,
    "parentId": 3995955,
    "country": "MX",
    "name": "Salvador Escalante",
    "fullName": null,
    "lat": 19.37335,
    "lng": -101.69617,
    "tz": "America/Mexico_City"
  },
  {
    "id": 8582334,
    "parentId": 3995955,
    "country": "MX",
    "name": "San Lucas",
    "fullName": null,
    "lat": 18.58707,
    "lng": -100.79865,
    "tz": "America/Mexico_City"
  },
  {
    "id": 8582335,
    "parentId": 3995955,
    "country": "MX",
    "name": "Santa Ana Maya",
    "fullName": null,
    "lat": 20.04146,
    "lng": -101.04209,
    "tz": "America/Mexico_City"
  },
  {
    "id": 8582337,
    "parentId": 3995955,
    "country": "MX",
    "name": "Senguio",
    "fullName": null,
    "lat": 19.75386,
    "lng": -100.33771,
    "tz": "America/Mexico_City"
  },
  {
    "id": 8582338,
    "parentId": 3995955,
    "country": "MX",
    "name": "Susupuato",
    "fullName": null,
    "lat": 19.19587,
    "lng": -100.40633,
    "tz": "America/Mexico_City"
  },
  {
    "id": 8582339,
    "parentId": 3995955,
    "country": "MX",
    "name": "Tacámbaro",
    "fullName": null,
    "lat": 19.24033,
    "lng": -101.4473,
    "tz": "America/Mexico_City"
  },
  {
    "id": 8582340,
    "parentId": 3995955,
    "country": "MX",
    "name": "Tancítaro",
    "fullName": null,
    "lat": 19.31067,
    "lng": -102.3484,
    "tz": "America/Mexico_City"
  },
  {
    "id": 8582341,
    "parentId": 3995955,
    "country": "MX",
    "name": "Tangamandapio",
    "fullName": null,
    "lat": 19.91163,
    "lng": -102.43409,
    "tz": "America/Mexico_City"
  },
  {
    "id": 8582342,
    "parentId": 3995955,
    "country": "MX",
    "name": "Tangancícuaro",
    "fullName": null,
    "lat": 19.88294,
    "lng": -102.22859,
    "tz": "America/Mexico_City"
  },
  {
    "id": 8582343,
    "parentId": 3995955,
    "country": "MX",
    "name": "Tanhuato",
    "fullName": null,
    "lat": 20.28521,
    "lng": -102.33911,
    "tz": "America/Mexico_City"
  },
  {
    "id": 8582344,
    "parentId": 3995955,
    "country": "MX",
    "name": "Taretan",
    "fullName": null,
    "lat": 19.32798,
    "lng": -101.91019,
    "tz": "America/Mexico_City"
  },
  {
    "id": 8582345,
    "parentId": 3995955,
    "country": "MX",
    "name": "Tarímbaro",
    "fullName": null,
    "lat": 19.79181,
    "lng": -101.15034,
    "tz": "America/Mexico_City"
  },
  {
    "id": 8582346,
    "parentId": 3995955,
    "country": "MX",
    "name": "Tepalcatepec",
    "fullName": null,
    "lat": 19.0603,
    "lng": -102.84513,
    "tz": "America/Mexico_City"
  },
  {
    "id": 8582347,
    "parentId": 3995955,
    "country": "MX",
    "name": "Tingambato",
    "fullName": null,
    "lat": 19.49044,
    "lng": -101.86206,
    "tz": "America/Mexico_City"
  },
  {
    "id": 8582349,
    "parentId": 3995955,
    "country": "MX",
    "name": "Tingüindín",
    "fullName": null,
    "lat": 19.77928,
    "lng": -102.49773,
    "tz": "America/Mexico_City"
  },
  {
    "id": 8582350,
    "parentId": 3995955,
    "country": "MX",
    "name": "Tiquicheo de Nicolás Romero",
    "fullName": null,
    "lat": 19.08089,
    "lng": -100.82552,
    "tz": "America/Mexico_City"
  },
  {
    "id": 8582351,
    "parentId": 3995955,
    "country": "MX",
    "name": "Tlalpujahua",
    "fullName": null,
    "lat": 19.77977,
    "lng": -100.19726,
    "tz": "America/Mexico_City"
  },
  {
    "id": 8582352,
    "parentId": 3995955,
    "country": "MX",
    "name": "Tlazazalca",
    "fullName": null,
    "lat": 19.99988,
    "lng": -102.07276,
    "tz": "America/Mexico_City"
  },
  {
    "id": 8583692,
    "parentId": 3995955,
    "country": "MX",
    "name": "Tocumbo",
    "fullName": null,
    "lat": 19.62,
    "lng": -102.60068,
    "tz": "America/Mexico_City"
  },
  {
    "id": 8582353,
    "parentId": 3995955,
    "country": "MX",
    "name": "Tumbiscatío",
    "fullName": null,
    "lat": 18.53958,
    "lng": -102.53492,
    "tz": "America/Mexico_City"
  },
  {
    "id": 8582354,
    "parentId": 3995955,
    "country": "MX",
    "name": "Turicato",
    "fullName": null,
    "lat": 18.95323,
    "lng": -101.42389,
    "tz": "America/Mexico_City"
  },
  {
    "id": 8582355,
    "parentId": 3995955,
    "country": "MX",
    "name": "Tuxpan",
    "fullName": null,
    "lat": 19.56733,
    "lng": -100.48516,
    "tz": "America/Mexico_City"
  },
  {
    "id": 8582356,
    "parentId": 3995955,
    "country": "MX",
    "name": "Tuzantla",
    "fullName": null,
    "lat": 19.24115,
    "lng": -100.61726,
    "tz": "America/Mexico_City"
  },
  {
    "id": 8582357,
    "parentId": 3995955,
    "country": "MX",
    "name": "Tzintzuntzan",
    "fullName": null,
    "lat": 19.60593,
    "lng": -101.54798,
    "tz": "America/Mexico_City"
  },
  {
    "id": 8582358,
    "parentId": 3995955,
    "country": "MX",
    "name": "Tzitzio",
    "fullName": null,
    "lat": 19.44492,
    "lng": -100.90849,
    "tz": "America/Mexico_City"
  },
  {
    "id": 8582359,
    "parentId": 3995955,
    "country": "MX",
    "name": "Uruapan",
    "fullName": null,
    "lat": 19.42738,
    "lng": -102.10136,
    "tz": "America/Mexico_City"
  },
  {
    "id": 8581715,
    "parentId": 3995955,
    "country": "MX",
    "name": "Venustiano Carranza",
    "fullName": null,
    "lat": 20.12162,
    "lng": -102.67397,
    "tz": "America/Mexico_City"
  },
  {
    "id": 8582360,
    "parentId": 3995955,
    "country": "MX",
    "name": "Villamar",
    "fullName": null,
    "lat": 19.96062,
    "lng": -102.59898,
    "tz": "America/Mexico_City"
  },
  {
    "id": 8582361,
    "parentId": 3995955,
    "country": "MX",
    "name": "Vista Hermosa",
    "fullName": null,
    "lat": 20.27749,
    "lng": -102.45698,
    "tz": "America/Mexico_City"
  },
  {
    "id": 8582362,
    "parentId": 3995955,
    "country": "MX",
    "name": "Yurécuaro",
    "fullName": null,
    "lat": 20.31247,
    "lng": -102.25017,
    "tz": "America/Mexico_City"
  },
  {
    "id": 8582363,
    "parentId": 3995955,
    "country": "MX",
    "name": "Zacapu",
    "fullName": null,
    "lat": 19.81538,
    "lng": -101.80026,
    "tz": "America/Mexico_City"
  },
  {
    "id": 8582364,
    "parentId": 3995955,
    "country": "MX",
    "name": "Zamora",
    "fullName": null,
    "lat": 20.02141,
    "lng": -102.28598,
    "tz": "America/Mexico_City"
  },
  {
    "id": 8582365,
    "parentId": 3995955,
    "country": "MX",
    "name": "Zináparo",
    "fullName": null,
    "lat": 20.16937,
    "lng": -101.99923,
    "tz": "America/Mexico_City"
  },
  {
    "id": 8582366,
    "parentId": 3995955,
    "country": "MX",
    "name": "Zinapécuaro",
    "fullName": null,
    "lat": 19.86886,
    "lng": -100.74184,
    "tz": "America/Mexico_City"
  },
  {
    "id": 8582367,
    "parentId": 3995955,
    "country": "MX",
    "name": "Ziracuaretiro",
    "fullName": null,
    "lat": 19.41887,
    "lng": -101.90884,
    "tz": "America/Mexico_City"
  },
  {
    "id": 8582368,
    "parentId": 3995955,
    "country": "MX",
    "name": "Zitácuaro",
    "fullName": null,
    "lat": 19.43197,
    "lng": -100.35741,
    "tz": "America/Mexico_City"
  }
]