[
  {
    "id": 4505006,
    "parentId": 5165418,
    "country": "US",
    "name": "Adams County",
    "fullName": null,
    "lat": 38.84551,
    "lng": -83.47215,
    "tz": "America/New_York"
  },
  {
    "id": 5145576,
    "parentId": 5165418,
    "country": "US",
    "name": "Allen County",
    "fullName": null,
    "lat": 40.77152,
    "lng": -84.10578,
    "tz": "America/New_York"
  },
  {
    "id": 5146062,
    "parentId": 5165418,
    "country": "US",
    "name": "Ashland County",
    "fullName": null,
    "lat": 40.84602,
    "lng": -82.27069,
    "tz": "America/New_York"
  },
  {
    "id": 5146092,
    "parentId": 5165418,
    "country": "US",
    "name": "Ashtabula County",
    "fullName": null,
    "lat": 41.89638,
    "lng": -80.75901,
    "tz": "America/New_York"
  },
  {
    "id": 4505546,
    "parentId": 5165418,
    "country": "US",
    "name": "Athens County",
    "fullName": null,
    "lat": 39.33386,
    "lng": -82.04513,
    "tz": "America/New_York"
  },
  {
    "id": 5146199,
    "parentId": 5165418,
    "country": "US",
    "name": "Auglaize County",
    "fullName": null,
    "lat": 40.56091,
    "lng": -84.22174,
    "tz": "America/New_York"
  },
  {
    "id": 5147012,
    "parentId": 5165418,
    "country": "US",
    "name": "Belmont County",
    "fullName": null,
    "lat": 40.0158,
    "lng": -80.98854,
    "tz": "America/New_York"
  },
  {
    "id": 4507215,
    "parentId": 5165418,
    "country": "US",
    "name": "Brown County",
    "fullName": null,
    "lat": 38.93405,
    "lng": -83.86743,
    "tz": "America/New_York"
  },
  {
    "id": 4507568,
    "parentId": 5165418,
    "country": "US",
    "name": "Butler County",
    "fullName": null,
    "lat": 39.43865,
    "lng": -84.57566,
    "tz": "America/New_York"
  },
  {
    "id": 5149311,
    "parentId": 5165418,
    "country": "US",
    "name": "Carroll County",
    "fullName": null,
    "lat": 40.57959,
    "lng": -81.08972,
    "tz": "America/New_York"
  },
  {
    "id": 5149757,
    "parentId": 5165418,
    "country": "US",
    "name": "Champaign County",
    "fullName": null,
    "lat": 40.13767,
    "lng": -83.7695,
    "tz": "America/New_York"
  },
  {
    "id": 4508810,
    "parentId": 5165418,
    "country": "US",
    "name": "Clark County",
    "fullName": null,
    "lat": 39.91678,
    "lng": -83.7839,
    "tz": "America/New_York"
  },
  {
    "id": 4508924,
    "parentId": 5165418,
    "country": "US",
    "name": "Clermont County",
    "fullName": null,
    "lat": 39.04743,
    "lng": -84.15192,
    "tz": "America/New_York"
  },
  {
    "id": 4508988,
    "parentId": 5165418,
    "country": "US",
    "name": "Clinton County",
    "fullName": null,
    "lat": 39.41498,
    "lng": -83.80838,
    "tz": "America/New_York"
  },
  {
    "id": 5150853,
    "parentId": 5165418,
    "country": "US",
    "name": "Columbiana County",
    "fullName": null,
    "lat": 40.76843,
    "lng": -80.77719,
    "tz": "America/New_York"
  },
  {
    "id": 5151190,
    "parentId": 5165418,
    "country": "US",
    "name": "Coshocton County",
    "fullName": null,
    "lat": 40.30164,
    "lng": -81.92001,
    "tz": "America/New_York"
  },
  {
    "id": 5151374,
    "parentId": 5165418,
    "country": "US",
    "name": "Crawford County",
    "fullName": null,
    "lat": 40.85077,
    "lng": -82.91978,
    "tz": "America/New_York"
  },
  {
    "id": 5151606,
    "parentId": 5165418,
    "country": "US",
    "name": "Cuyahoga County",
    "fullName": null,
    "lat": 41.47875,
    "lng": -81.67786,
    "tz": "America/New_York"
  },
  {
    "id": 5151705,
    "parentId": 5165418,
    "country": "US",
    "name": "Darke County",
    "fullName": null,
    "lat": 40.13323,
    "lng": -84.61931,
    "tz": "America/New_York"
  },
  {
    "id": 5151865,
    "parentId": 5165418,
    "country": "US",
    "name": "Defiance County",
    "fullName": null,
    "lat": 41.32392,
    "lng": -84.4905,
    "tz": "America/New_York"
  },
  {
    "id": 5151896,
    "parentId": 5165418,
    "country": "US",
    "name": "Delaware County",
    "fullName": null,
    "lat": 40.27839,
    "lng": -83.00489,
    "tz": "America/New_York"
  },
  {
    "id": 5153362,
    "parentId": 5165418,
    "country": "US",
    "name": "Erie County",
    "fullName": null,
    "lat": 41.43209,
    "lng": -82.69958,
    "tz": "America/New_York"
  },
  {
    "id": 4511295,
    "parentId": 5165418,
    "country": "US",
    "name": "Fairfield County",
    "fullName": null,
    "lat": 39.7516,
    "lng": -82.63059,
    "tz": "America/New_York"
  },
  {
    "id": 4511521,
    "parentId": 5165418,
    "country": "US",
    "name": "Fayette County",
    "fullName": null,
    "lat": 39.55988,
    "lng": -83.4561,
    "tz": "America/New_York"
  },
  {
    "id": 4512214,
    "parentId": 5165418,
    "country": "US",
    "name": "Franklin County",
    "fullName": null,
    "lat": 39.96952,
    "lng": -83.00935,
    "tz": "America/New_York"
  },
  {
    "id": 5155347,
    "parentId": 5165418,
    "country": "US",
    "name": "Fulton County",
    "fullName": null,
    "lat": 41.6018,
    "lng": -84.13007,
    "tz": "America/New_York"
  },
  {
    "id": 4512438,
    "parentId": 5165418,
    "country": "US",
    "name": "Gallia County",
    "fullName": null,
    "lat": 38.82467,
    "lng": -82.31691,
    "tz": "America/New_York"
  },
  {
    "id": 5155556,
    "parentId": 5165418,
    "country": "US",
    "name": "Geauga County",
    "fullName": null,
    "lat": 41.49954,
    "lng": -81.17865,
    "tz": "America/New_York"
  },
  {
    "id": 4513280,
    "parentId": 5165418,
    "country": "US",
    "name": "Greene County",
    "fullName": null,
    "lat": 39.69148,
    "lng": -83.88989,
    "tz": "America/New_York"
  },
  {
    "id": 5156615,
    "parentId": 5165418,
    "country": "US",
    "name": "Guernsey County",
    "fullName": null,
    "lat": 40.05205,
    "lng": -81.49426,
    "tz": "America/New_York"
  },
  {
    "id": 4513583,
    "parentId": 5165418,
    "country": "US",
    "name": "Hamilton County",
    "fullName": null,
    "lat": 39.19553,
    "lng": -84.54277,
    "tz": "America/New_York"
  },
  {
    "id": 5156770,
    "parentId": 5165418,
    "country": "US",
    "name": "Hancock County",
    "fullName": null,
    "lat": 41.00194,
    "lng": -83.66654,
    "tz": "America/New_York"
  },
  {
    "id": 5156844,
    "parentId": 5165418,
    "country": "US",
    "name": "Hardin County",
    "fullName": null,
    "lat": 40.66151,
    "lng": -83.65944,
    "tz": "America/New_York"
  },
  {
    "id": 5156975,
    "parentId": 5165418,
    "country": "US",
    "name": "Harrison County",
    "fullName": null,
    "lat": 40.29384,
    "lng": -81.09114,
    "tz": "America/New_York"
  },
  {
    "id": 5157338,
    "parentId": 5165418,
    "country": "US",
    "name": "Henry County",
    "fullName": null,
    "lat": 41.33389,
    "lng": -84.06823,
    "tz": "America/New_York"
  },
  {
    "id": 4514204,
    "parentId": 5165418,
    "country": "US",
    "name": "Highland County",
    "fullName": null,
    "lat": 39.18474,
    "lng": -83.60097,
    "tz": "America/New_York"
  },
  {
    "id": 4514358,
    "parentId": 5165418,
    "country": "US",
    "name": "Hocking County",
    "fullName": null,
    "lat": 39.49702,
    "lng": -82.47925,
    "tz": "America/New_York"
  },
  {
    "id": 5157783,
    "parentId": 5165418,
    "country": "US",
    "name": "Holmes County",
    "fullName": null,
    "lat": 40.5612,
    "lng": -81.92936,
    "tz": "America/New_York"
  },
  {
    "id": 5158275,
    "parentId": 5165418,
    "country": "US",
    "name": "Huron County",
    "fullName": null,
    "lat": 41.14615,
    "lng": -82.59841,
    "tz": "America/New_York"
  },
  {
    "id": 4515328,
    "parentId": 5165418,
    "country": "US",
    "name": "Jackson County",
    "fullName": null,
    "lat": 39.01967,
    "lng": -82.61838,
    "tz": "America/New_York"
  },
  {
    "id": 5159079,
    "parentId": 5165418,
    "country": "US",
    "name": "Jefferson County",
    "fullName": null,
    "lat": 40.38502,
    "lng": -80.76097,
    "tz": "America/New_York"
  },
  {
    "id": 5159891,
    "parentId": 5165418,
    "country": "US",
    "name": "Knox County",
    "fullName": null,
    "lat": 40.39877,
    "lng": -82.42153,
    "tz": "America/New_York"
  },
  {
    "id": 5160090,
    "parentId": 5165418,
    "country": "US",
    "name": "Lake County",
    "fullName": null,
    "lat": 41.71393,
    "lng": -81.24527,
    "tz": "America/New_York"
  },
  {
    "id": 4516351,
    "parentId": 5165418,
    "country": "US",
    "name": "Lawrence County",
    "fullName": null,
    "lat": 38.59847,
    "lng": -82.53675,
    "tz": "America/New_York"
  },
  {
    "id": 5160740,
    "parentId": 5165418,
    "country": "US",
    "name": "Licking County",
    "fullName": null,
    "lat": 40.09161,
    "lng": -82.48315,
    "tz": "America/New_York"
  },
  {
    "id": 5161156,
    "parentId": 5165418,
    "country": "US",
    "name": "Logan County",
    "fullName": null,
    "lat": 40.38845,
    "lng": -83.76587,
    "tz": "America/New_York"
  },
  {
    "id": 5161272,
    "parentId": 5165418,
    "country": "US",
    "name": "Lorain County",
    "fullName": null,
    "lat": 41.45252,
    "lng": -82.15147,
    "tz": "America/New_York"
  },
  {
    "id": 5161413,
    "parentId": 5165418,
    "country": "US",
    "name": "Lucas County",
    "fullName": null,
    "lat": 41.68419,
    "lng": -83.46826,
    "tz": "America/New_York"
  },
  {
    "id": 4517365,
    "parentId": 5165418,
    "country": "US",
    "name": "Madison County",
    "fullName": null,
    "lat": 39.89403,
    "lng": -83.4002,
    "tz": "America/New_York"
  },
  {
    "id": 5161640,
    "parentId": 5165418,
    "country": "US",
    "name": "Mahoning County",
    "fullName": null,
    "lat": 41.01464,
    "lng": -80.77629,
    "tz": "America/New_York"
  },
  {
    "id": 5161911,
    "parentId": 5165418,
    "country": "US",
    "name": "Marion County",
    "fullName": null,
    "lat": 40.58719,
    "lng": -83.16087,
    "tz": "America/New_York"
  },
  {
    "id": 5162517,
    "parentId": 5165418,
    "country": "US",
    "name": "Medina County",
    "fullName": null,
    "lat": 41.11759,
    "lng": -81.89971,
    "tz": "America/New_York"
  },
  {
    "id": 4518038,
    "parentId": 5165418,
    "country": "US",
    "name": "Meigs County",
    "fullName": null,
    "lat": 39.08224,
    "lng": -82.0229,
    "tz": "America/New_York"
  },
  {
    "id": 5162679,
    "parentId": 5165418,
    "country": "US",
    "name": "Mercer County",
    "fullName": null,
    "lat": 40.54001,
    "lng": -84.62936,
    "tz": "America/New_York"
  },
  {
    "id": 5162774,
    "parentId": 5165418,
    "country": "US",
    "name": "Miami County",
    "fullName": null,
    "lat": 40.05345,
    "lng": -84.22885,
    "tz": "America/New_York"
  },
  {
    "id": 4518563,
    "parentId": 5165418,
    "country": "US",
    "name": "Monroe County",
    "fullName": null,
    "lat": 39.72735,
    "lng": -81.08292,
    "tz": "America/New_York"
  },
  {
    "id": 4518598,
    "parentId": 5165418,
    "country": "US",
    "name": "Montgomery County",
    "fullName": null,
    "lat": 39.75459,
    "lng": -84.29068,
    "tz": "America/New_York"
  },
  {
    "id": 4518677,
    "parentId": 5165418,
    "country": "US",
    "name": "Morgan County",
    "fullName": null,
    "lat": 39.62037,
    "lng": -81.85266,
    "tz": "America/New_York"
  },
  {
    "id": 5163509,
    "parentId": 5165418,
    "country": "US",
    "name": "Morrow County",
    "fullName": null,
    "lat": 40.52409,
    "lng": -82.79407,
    "tz": "America/New_York"
  },
  {
    "id": 4519300,
    "parentId": 5165418,
    "country": "US",
    "name": "Muskingum County",
    "fullName": null,
    "lat": 39.96542,
    "lng": -81.94438,
    "tz": "America/New_York"
  },
  {
    "id": 4519808,
    "parentId": 5165418,
    "country": "US",
    "name": "Noble County",
    "fullName": null,
    "lat": 39.76596,
    "lng": -81.45556,
    "tz": "America/New_York"
  },
  {
    "id": 5165803,
    "parentId": 5165418,
    "country": "US",
    "name": "Ottawa County",
    "fullName": null,
    "lat": 41.49675,
    "lng": -82.94128,
    "tz": "America/New_York"
  },
  {
    "id": 5166256,
    "parentId": 5165418,
    "country": "US",
    "name": "Paulding County",
    "fullName": null,
    "lat": 41.11662,
    "lng": -84.5802,
    "tz": "America/New_York"
  },
  {
    "id": 4521093,
    "parentId": 5165418,
    "country": "US",
    "name": "Perry County",
    "fullName": null,
    "lat": 39.73715,
    "lng": -82.23614,
    "tz": "America/New_York"
  },
  {
    "id": 4521196,
    "parentId": 5165418,
    "country": "US",
    "name": "Pickaway County",
    "fullName": null,
    "lat": 39.64194,
    "lng": -83.02439,
    "tz": "America/New_York"
  },
  {
    "id": 4521245,
    "parentId": 5165418,
    "country": "US",
    "name": "Pike County",
    "fullName": null,
    "lat": 39.07737,
    "lng": -83.06685,
    "tz": "America/New_York"
  },
  {
    "id": 5167284,
    "parentId": 5165418,
    "country": "US",
    "name": "Portage County",
    "fullName": null,
    "lat": 41.16768,
    "lng": -81.1974,
    "tz": "America/New_York"
  },
  {
    "id": 4521907,
    "parentId": 5165418,
    "country": "US",
    "name": "Preble County",
    "fullName": null,
    "lat": 39.74157,
    "lng": -84.64802,
    "tz": "America/New_York"
  },
  {
    "id": 5167574,
    "parentId": 5165418,
    "country": "US",
    "name": "Putnam County",
    "fullName": null,
    "lat": 41.02208,
    "lng": -84.13173,
    "tz": "America/New_York"
  },
  {
    "id": 5168041,
    "parentId": 5165418,
    "country": "US",
    "name": "Richland County",
    "fullName": null,
    "lat": 40.77468,
    "lng": -82.53648,
    "tz": "America/New_York"
  },
  {
    "id": 4522889,
    "parentId": 5165418,
    "country": "US",
    "name": "Ross County",
    "fullName": null,
    "lat": 39.33763,
    "lng": -83.05703,
    "tz": "America/New_York"
  },
  {
    "id": 5170698,
    "parentId": 5165418,
    "country": "US",
    "name": "Sandusky County",
    "fullName": null,
    "lat": 41.35742,
    "lng": -83.14391,
    "tz": "America/New_York"
  },
  {
    "id": 4524221,
    "parentId": 5165418,
    "country": "US",
    "name": "Scioto County",
    "fullName": null,
    "lat": 38.80396,
    "lng": -82.99283,
    "tz": "America/New_York"
  },
  {
    "id": 5171643,
    "parentId": 5165418,
    "country": "US",
    "name": "Seneca County",
    "fullName": null,
    "lat": 41.12388,
    "lng": -83.12771,
    "tz": "America/New_York"
  },
  {
    "id": 5171871,
    "parentId": 5165418,
    "country": "US",
    "name": "Shelby County",
    "fullName": null,
    "lat": 40.33153,
    "lng": -84.20473,
    "tz": "America/New_York"
  },
  {
    "id": 5172936,
    "parentId": 5165418,
    "country": "US",
    "name": "Stark County",
    "fullName": null,
    "lat": 40.81389,
    "lng": -81.36564,
    "tz": "America/New_York"
  },
  {
    "id": 5173386,
    "parentId": 5165418,
    "country": "US",
    "name": "Summit County",
    "fullName": null,
    "lat": 41.12598,
    "lng": -81.53217,
    "tz": "America/New_York"
  },
  {
    "id": 5174418,
    "parentId": 5165418,
    "country": "US",
    "name": "Trumbull County",
    "fullName": null,
    "lat": 41.31717,
    "lng": -80.76116,
    "tz": "America/New_York"
  },
  {
    "id": 5174499,
    "parentId": 5165418,
    "country": "US",
    "name": "Tuscarawas County",
    "fullName": null,
    "lat": 40.44096,
    "lng": -81.47377,
    "tz": "America/New_York"
  },
  {
    "id": 5174669,
    "parentId": 5165418,
    "country": "US",
    "name": "Union County",
    "fullName": null,
    "lat": 40.2994,
    "lng": -83.37158,
    "tz": "America/New_York"
  },
  {
    "id": 5175012,
    "parentId": 5165418,
    "country": "US",
    "name": "Van Wert County",
    "fullName": null,
    "lat": 40.8554,
    "lng": -84.5861,
    "tz": "America/New_York"
  },
  {
    "id": 4527250,
    "parentId": 5165418,
    "country": "US",
    "name": "Vinton County",
    "fullName": null,
    "lat": 39.25099,
    "lng": -82.48535,
    "tz": "America/New_York"
  },
  {
    "id": 4527624,
    "parentId": 5165418,
    "country": "US",
    "name": "Warren County",
    "fullName": null,
    "lat": 39.42758,
    "lng": -84.16676,
    "tz": "America/New_York"
  },
  {
    "id": 4527654,
    "parentId": 5165418,
    "country": "US",
    "name": "Washington County",
    "fullName": null,
    "lat": 39.45532,
    "lng": -81.49525,
    "tz": "America/New_York"
  },
  {
    "id": 5175898,
    "parentId": 5165418,
    "country": "US",
    "name": "Wayne County",
    "fullName": null,
    "lat": 40.82887,
    "lng": -81.88803,
    "tz": "America/New_York"
  },
  {
    "id": 5176872,
    "parentId": 5165418,
    "country": "US",
    "name": "Williams County",
    "fullName": null,
    "lat": 41.56029,
    "lng": -84.58814,
    "tz": "America/New_York"
  },
  {
    "id": 5177229,
    "parentId": 5165418,
    "country": "US",
    "name": "Wood County",
    "fullName": null,
    "lat": 41.36169,
    "lng": -83.62299,
    "tz": "America/New_York"
  },
  {
    "id": 5177434,
    "parentId": 5165418,
    "country": "US",
    "name": "Wyandot County",
    "fullName": null,
    "lat": 40.84237,
    "lng": -83.30437,
    "tz": "America/New_York"
  }
]