[
  {
    "id": 6319504,
    "parentId": 3474575,
    "country": "BR",
    "name": "Abreulândia",
    "fullName": null,
    "lat": -9.43672,
    "lng": -49.31733,
    "tz": "America/Araguaina"
  },
  {
    "id": 6319505,
    "parentId": 3474575,
    "country": "BR",
    "name": "Aguiarnópolis",
    "fullName": null,
    "lat": -6.48176,
    "lng": -47.51435,
    "tz": "America/Araguaina"
  },
  {
    "id": 6319506,
    "parentId": 3474575,
    "country": "BR",
    "name": "Aliança do Tocantins",
    "fullName": null,
    "lat": -11.32864,
    "lng": -48.95855,
    "tz": "America/Araguaina"
  },
  {
    "id": 6319507,
    "parentId": 3474575,
    "country": "BR",
    "name": "Almas",
    "fullName": null,
    "lat": -11.43527,
    "lng": -47.23635,
    "tz": "America/Araguaina"
  },
  {
    "id": 6319508,
    "parentId": 3474575,
    "country": "BR",
    "name": "Alvorada",
    "fullName": null,
    "lat": -12.41786,
    "lng": -49.10605,
    "tz": "America/Araguaina"
  },
  {
    "id": 6319509,
    "parentId": 3474575,
    "country": "BR",
    "name": "Ananás",
    "fullName": null,
    "lat": -6.14621,
    "lng": -48.21505,
    "tz": "America/Araguaina"
  },
  {
    "id": 6319510,
    "parentId": 3474575,
    "country": "BR",
    "name": "Angico",
    "fullName": null,
    "lat": -6.34335,
    "lng": -47.93112,
    "tz": "America/Araguaina"
  },
  {
    "id": 6319511,
    "parentId": 3474575,
    "country": "BR",
    "name": "Aparecida do Rio Negro",
    "fullName": null,
    "lat": -10.06183,
    "lng": -47.96514,
    "tz": "America/Araguaina"
  },
  {
    "id": 6319512,
    "parentId": 3474575,
    "country": "BR",
    "name": "Aragominas",
    "fullName": null,
    "lat": -6.89259,
    "lng": -48.61589,
    "tz": "America/Araguaina"
  },
  {
    "id": 6319513,
    "parentId": 3474575,
    "country": "BR",
    "name": "Araguacema",
    "fullName": null,
    "lat": -8.91352,
    "lng": -49.40915,
    "tz": "America/Araguaina"
  },
  {
    "id": 6319514,
    "parentId": 3474575,
    "country": "BR",
    "name": "Araguaçu",
    "fullName": null,
    "lat": -12.72579,
    "lng": -49.74942,
    "tz": "America/Araguaina"
  },
  {
    "id": 6319515,
    "parentId": 3474575,
    "country": "BR",
    "name": "Araguaína",
    "fullName": null,
    "lat": -7.31139,
    "lng": -48.62113,
    "tz": "America/Araguaina"
  },
  {
    "id": 6319516,
    "parentId": 3474575,
    "country": "BR",
    "name": "Araguanã",
    "fullName": null,
    "lat": -6.76634,
    "lng": -48.52702,
    "tz": "America/Araguaina"
  },
  {
    "id": 6319517,
    "parentId": 3474575,
    "country": "BR",
    "name": "Araguatins",
    "fullName": null,
    "lat": -5.64071,
    "lng": -48.08859,
    "tz": "America/Araguaina"
  },
  {
    "id": 6319518,
    "parentId": 3474575,
    "country": "BR",
    "name": "Arapoema",
    "fullName": null,
    "lat": -7.71941,
    "lng": -49.03285,
    "tz": "America/Araguaina"
  },
  {
    "id": 6319519,
    "parentId": 3474575,
    "country": "BR",
    "name": "Arraias",
    "fullName": null,
    "lat": -12.8411,
    "lng": -46.90868,
    "tz": "America/Araguaina"
  },
  {
    "id": 6319520,
    "parentId": 3474575,
    "country": "BR",
    "name": "Augustinópolis",
    "fullName": null,
    "lat": -5.5108,
    "lng": -47.91538,
    "tz": "America/Araguaina"
  },
  {
    "id": 6319521,
    "parentId": 3474575,
    "country": "BR",
    "name": "Aurora do Tocantins",
    "fullName": null,
    "lat": -12.61624,
    "lng": -46.44441,
    "tz": "America/Araguaina"
  },
  {
    "id": 6319522,
    "parentId": 3474575,
    "country": "BR",
    "name": "Axixá do Tocantins",
    "fullName": null,
    "lat": -5.6485,
    "lng": -47.77278,
    "tz": "America/Araguaina"
  },
  {
    "id": 6319523,
    "parentId": 3474575,
    "country": "BR",
    "name": "Babaçulândia",
    "fullName": null,
    "lat": -7.20516,
    "lng": -47.76821,
    "tz": "America/Araguaina"
  },
  {
    "id": 6319524,
    "parentId": 3474575,
    "country": "BR",
    "name": "Bandeirantes do Tocantins",
    "fullName": null,
    "lat": -8.00418,
    "lng": -48.68223,
    "tz": "America/Araguaina"
  },
  {
    "id": 6319525,
    "parentId": 3474575,
    "country": "BR",
    "name": "Barra do Ouro",
    "fullName": null,
    "lat": -7.75845,
    "lng": -47.58781,
    "tz": "America/Araguaina"
  },
  {
    "id": 6319526,
    "parentId": 3474575,
    "country": "BR",
    "name": "Barrolândia",
    "fullName": null,
    "lat": -9.84999,
    "lng": -48.83437,
    "tz": "America/Araguaina"
  },
  {
    "id": 6319527,
    "parentId": 3474575,
    "country": "BR",
    "name": "Bernardo Sayão",
    "fullName": null,
    "lat": -7.97377,
    "lng": -48.98609,
    "tz": "America/Araguaina"
  },
  {
    "id": 6319528,
    "parentId": 3474575,
    "country": "BR",
    "name": "Bom Jesus do Tocantins",
    "fullName": null,
    "lat": -9.01838,
    "lng": -47.86969,
    "tz": "America/Araguaina"
  },
  {
    "id": 6319529,
    "parentId": 3474575,
    "country": "BR",
    "name": "Brasilândia do Tocantins",
    "fullName": null,
    "lat": -8.26045,
    "lng": -48.4345,
    "tz": "America/Araguaina"
  },
  {
    "id": 6319530,
    "parentId": 3474575,
    "country": "BR",
    "name": "Brejinho de Nazaré",
    "fullName": null,
    "lat": -11.01872,
    "lng": -48.64695,
    "tz": "America/Araguaina"
  },
  {
    "id": 6319531,
    "parentId": 3474575,
    "country": "BR",
    "name": "Buriti do Tocantins",
    "fullName": null,
    "lat": -5.37057,
    "lng": -48.13476,
    "tz": "America/Araguaina"
  },
  {
    "id": 6319532,
    "parentId": 3474575,
    "country": "BR",
    "name": "Cachoeirinha",
    "fullName": null,
    "lat": -6.09807,
    "lng": -47.87888,
    "tz": "America/Araguaina"
  },
  {
    "id": 6319533,
    "parentId": 3474575,
    "country": "BR",
    "name": "Campos Lindos",
    "fullName": null,
    "lat": -8.22553,
    "lng": -46.84507,
    "tz": "America/Araguaina"
  },
  {
    "id": 6319534,
    "parentId": 3474575,
    "country": "BR",
    "name": "Cariri do Tocantins",
    "fullName": null,
    "lat": -11.945,
    "lng": -49.20796,
    "tz": "America/Araguaina"
  },
  {
    "id": 6319535,
    "parentId": 3474575,
    "country": "BR",
    "name": "Carmolândia",
    "fullName": null,
    "lat": -7.03001,
    "lng": -48.35627,
    "tz": "America/Araguaina"
  },
  {
    "id": 6319536,
    "parentId": 3474575,
    "country": "BR",
    "name": "Carrasco Bonito",
    "fullName": null,
    "lat": -5.31027,
    "lng": -48.0336,
    "tz": "America/Araguaina"
  },
  {
    "id": 6319537,
    "parentId": 3474575,
    "country": "BR",
    "name": "Caseara",
    "fullName": null,
    "lat": -9.45982,
    "lng": -49.83604,
    "tz": "America/Araguaina"
  },
  {
    "id": 6319538,
    "parentId": 3474575,
    "country": "BR",
    "name": "Centenário",
    "fullName": null,
    "lat": -9.15331,
    "lng": -47.44772,
    "tz": "America/Araguaina"
  },
  {
    "id": 6319540,
    "parentId": 3474575,
    "country": "BR",
    "name": "Chapada da Natividade",
    "fullName": null,
    "lat": -11.54159,
    "lng": -47.88094,
    "tz": "America/Araguaina"
  },
  {
    "id": 6319539,
    "parentId": 3474575,
    "country": "BR",
    "name": "Chapada de Areia",
    "fullName": null,
    "lat": -10.14838,
    "lng": -49.19998,
    "tz": "America/Araguaina"
  },
  {
    "id": 6319541,
    "parentId": 3474575,
    "country": "BR",
    "name": "Colinas do Tocantins",
    "fullName": null,
    "lat": -8.09451,
    "lng": -48.52143,
    "tz": "America/Araguaina"
  },
  {
    "id": 6319594,
    "parentId": 3474575,
    "country": "BR",
    "name": "Colméia",
    "fullName": null,
    "lat": -8.87655,
    "lng": -48.75788,
    "tz": "America/Araguaina"
  },
  {
    "id": 6319542,
    "parentId": 3474575,
    "country": "BR",
    "name": "Combinado",
    "fullName": null,
    "lat": -12.82321,
    "lng": -46.53424,
    "tz": "America/Araguaina"
  },
  {
    "id": 6319543,
    "parentId": 3474575,
    "country": "BR",
    "name": "Conceição do Tocantins",
    "fullName": null,
    "lat": -12.09878,
    "lng": -47.27047,
    "tz": "America/Araguaina"
  },
  {
    "id": 6319544,
    "parentId": 3474575,
    "country": "BR",
    "name": "Couto Magalhães",
    "fullName": null,
    "lat": -8.50138,
    "lng": -49.17287,
    "tz": "America/Araguaina"
  },
  {
    "id": 6319545,
    "parentId": 3474575,
    "country": "BR",
    "name": "Cristalândia",
    "fullName": null,
    "lat": -10.62568,
    "lng": -49.36863,
    "tz": "America/Araguaina"
  },
  {
    "id": 6319546,
    "parentId": 3474575,
    "country": "BR",
    "name": "Crixás do Tocantins",
    "fullName": null,
    "lat": -11.16426,
    "lng": -49.07254,
    "tz": "America/Araguaina"
  },
  {
    "id": 6319547,
    "parentId": 3474575,
    "country": "BR",
    "name": "Darcinópolis",
    "fullName": null,
    "lat": -6.76072,
    "lng": -47.75687,
    "tz": "America/Araguaina"
  },
  {
    "id": 6319548,
    "parentId": 3474575,
    "country": "BR",
    "name": "Dianópolis",
    "fullName": null,
    "lat": -11.69578,
    "lng": -46.73544,
    "tz": "America/Araguaina"
  },
  {
    "id": 6319549,
    "parentId": 3474575,
    "country": "BR",
    "name": "Divinópolis do Tocantins",
    "fullName": null,
    "lat": -9.65731,
    "lng": -49.38737,
    "tz": "America/Araguaina"
  },
  {
    "id": 6319550,
    "parentId": 3474575,
    "country": "BR",
    "name": "Dois Irmãos do Tocantins",
    "fullName": null,
    "lat": -9.29074,
    "lng": -49.15573,
    "tz": "America/Araguaina"
  },
  {
    "id": 6319551,
    "parentId": 3474575,
    "country": "BR",
    "name": "Dueré",
    "fullName": null,
    "lat": -11.35537,
    "lng": -49.46137,
    "tz": "America/Araguaina"
  },
  {
    "id": 6319552,
    "parentId": 3474575,
    "country": "BR",
    "name": "Esperantina",
    "fullName": null,
    "lat": -5.30432,
    "lng": -48.54762,
    "tz": "America/Araguaina"
  },
  {
    "id": 6319553,
    "parentId": 3474575,
    "country": "BR",
    "name": "Fátima",
    "fullName": null,
    "lat": -10.81953,
    "lng": -48.86757,
    "tz": "America/Araguaina"
  },
  {
    "id": 6319554,
    "parentId": 3474575,
    "country": "BR",
    "name": "Figueirópolis",
    "fullName": null,
    "lat": -12.26857,
    "lng": -49.28976,
    "tz": "America/Araguaina"
  },
  {
    "id": 6319555,
    "parentId": 3474575,
    "country": "BR",
    "name": "Filadélfia",
    "fullName": null,
    "lat": -7.48804,
    "lng": -47.85623,
    "tz": "America/Araguaina"
  },
  {
    "id": 6319556,
    "parentId": 3474575,
    "country": "BR",
    "name": "Formoso do Araguaia",
    "fullName": null,
    "lat": -11.95898,
    "lng": -50.09809,
    "tz": "America/Araguaina"
  },
  {
    "id": 6319557,
    "parentId": 3474575,
    "country": "BR",
    "name": "Fortaleza do Tabocão",
    "fullName": null,
    "lat": -9.08805,
    "lng": -48.55638,
    "tz": "America/Araguaina"
  },
  {
    "id": 6319558,
    "parentId": 3474575,
    "country": "BR",
    "name": "Goianorte",
    "fullName": null,
    "lat": -8.83664,
    "lng": -48.99356,
    "tz": "America/Araguaina"
  },
  {
    "id": 6319559,
    "parentId": 3474575,
    "country": "BR",
    "name": "Goiatins",
    "fullName": null,
    "lat": -8.04432,
    "lng": -47.47183,
    "tz": "America/Araguaina"
  },
  {
    "id": 3398566,
    "parentId": 3474575,
    "country": "BR",
    "name": "Guaraí",
    "fullName": null,
    "lat": -8.70233,
    "lng": -48.40251,
    "tz": "America/Araguaina"
  },
  {
    "id": 6319560,
    "parentId": 3474575,
    "country": "BR",
    "name": "Gurupi",
    "fullName": null,
    "lat": -11.66673,
    "lng": -48.84218,
    "tz": "America/Araguaina"
  },
  {
    "id": 6324252,
    "parentId": 3474575,
    "country": "BR",
    "name": "Ipueiras",
    "fullName": null,
    "lat": -11.15847,
    "lng": -48.37886,
    "tz": "America/Araguaina"
  },
  {
    "id": 6319561,
    "parentId": 3474575,
    "country": "BR",
    "name": "Itacajá",
    "fullName": null,
    "lat": -8.55538,
    "lng": -47.62201,
    "tz": "America/Araguaina"
  },
  {
    "id": 6319562,
    "parentId": 3474575,
    "country": "BR",
    "name": "Itaguatins",
    "fullName": null,
    "lat": -5.81408,
    "lng": -47.65425,
    "tz": "America/Araguaina"
  },
  {
    "id": 6319563,
    "parentId": 3474575,
    "country": "BR",
    "name": "Itapiratins",
    "fullName": null,
    "lat": -8.3582,
    "lng": -47.99703,
    "tz": "America/Araguaina"
  },
  {
    "id": 6319564,
    "parentId": 3474575,
    "country": "BR",
    "name": "Itaporã do Tocantins",
    "fullName": null,
    "lat": -8.50178,
    "lng": -48.75214,
    "tz": "America/Araguaina"
  },
  {
    "id": 6319565,
    "parentId": 3474575,
    "country": "BR",
    "name": "Jaú do Tocantins",
    "fullName": null,
    "lat": -12.83943,
    "lng": -48.63203,
    "tz": "America/Araguaina"
  },
  {
    "id": 6319566,
    "parentId": 3474575,
    "country": "BR",
    "name": "Juarina",
    "fullName": null,
    "lat": -8.1018,
    "lng": -49.07995,
    "tz": "America/Araguaina"
  },
  {
    "id": 6324280,
    "parentId": 3474575,
    "country": "BR",
    "name": "Lagoa da Confusão",
    "fullName": null,
    "lat": -10.99307,
    "lng": -49.93702,
    "tz": "America/Araguaina"
  },
  {
    "id": 6319567,
    "parentId": 3474575,
    "country": "BR",
    "name": "Lagoa do Tocantins",
    "fullName": null,
    "lat": -10.33721,
    "lng": -47.48133,
    "tz": "America/Araguaina"
  },
  {
    "id": 6319568,
    "parentId": 3474575,
    "country": "BR",
    "name": "Lajeado",
    "fullName": null,
    "lat": -9.86927,
    "lng": -48.28058,
    "tz": "America/Araguaina"
  },
  {
    "id": 6319569,
    "parentId": 3474575,
    "country": "BR",
    "name": "Lavandeira",
    "fullName": null,
    "lat": -12.83658,
    "lng": -46.39307,
    "tz": "America/Araguaina"
  },
  {
    "id": 6319570,
    "parentId": 3474575,
    "country": "BR",
    "name": "Lizarda",
    "fullName": null,
    "lat": -9.52341,
    "lng": -46.97679,
    "tz": "America/Araguaina"
  },
  {
    "id": 6319571,
    "parentId": 3474575,
    "country": "BR",
    "name": "Luzinópolis",
    "fullName": null,
    "lat": -6.20636,
    "lng": -47.83045,
    "tz": "America/Araguaina"
  },
  {
    "id": 6319572,
    "parentId": 3474575,
    "country": "BR",
    "name": "Marianópolis do Tocantins",
    "fullName": null,
    "lat": -9.81443,
    "lng": -49.71607,
    "tz": "America/Araguaina"
  },
  {
    "id": 6319573,
    "parentId": 3474575,
    "country": "BR",
    "name": "Mateiros",
    "fullName": null,
    "lat": -10.41802,
    "lng": -46.4838,
    "tz": "America/Araguaina"
  },
  {
    "id": 6319574,
    "parentId": 3474575,
    "country": "BR",
    "name": "Maurilândia do Tocantins",
    "fullName": null,
    "lat": -5.98609,
    "lng": -47.57986,
    "tz": "America/Araguaina"
  },
  {
    "id": 6319575,
    "parentId": 3474575,
    "country": "BR",
    "name": "Miracema do Tocantins",
    "fullName": null,
    "lat": -9.76855,
    "lng": -48.58348,
    "tz": "America/Araguaina"
  },
  {
    "id": 6319576,
    "parentId": 3474575,
    "country": "BR",
    "name": "Miranorte",
    "fullName": null,
    "lat": -9.39114,
    "lng": -48.66598,
    "tz": "America/Araguaina"
  },
  {
    "id": 6324189,
    "parentId": 3474575,
    "country": "BR",
    "name": "Monte do Carmo",
    "fullName": null,
    "lat": -10.72034,
    "lng": -48.01807,
    "tz": "America/Araguaina"
  },
  {
    "id": 6319577,
    "parentId": 3474575,
    "country": "BR",
    "name": "Monte Santo do Tocantins",
    "fullName": null,
    "lat": -10.00972,
    "lng": -49.12747,
    "tz": "America/Araguaina"
  },
  {
    "id": 6319579,
    "parentId": 3474575,
    "country": "BR",
    "name": "Muricilândia",
    "fullName": null,
    "lat": -6.98598,
    "lng": -48.79167,
    "tz": "America/Araguaina"
  },
  {
    "id": 6324190,
    "parentId": 3474575,
    "country": "BR",
    "name": "Natividade",
    "fullName": null,
    "lat": -11.75889,
    "lng": -47.64485,
    "tz": "America/Araguaina"
  },
  {
    "id": 6319580,
    "parentId": 3474575,
    "country": "BR",
    "name": "Nazaré",
    "fullName": null,
    "lat": -6.31311,
    "lng": -47.78944,
    "tz": "America/Araguaina"
  },
  {
    "id": 6319581,
    "parentId": 3474575,
    "country": "BR",
    "name": "Nova Olinda",
    "fullName": null,
    "lat": -7.68973,
    "lng": -48.28152,
    "tz": "America/Araguaina"
  },
  {
    "id": 6319582,
    "parentId": 3474575,
    "country": "BR",
    "name": "Nova Rosalândia",
    "fullName": null,
    "lat": -10.56285,
    "lng": -48.97053,
    "tz": "America/Araguaina"
  },
  {
    "id": 6319583,
    "parentId": 3474575,
    "country": "BR",
    "name": "Novo Acordo",
    "fullName": null,
    "lat": -10.15197,
    "lng": -47.47165,
    "tz": "America/Araguaina"
  },
  {
    "id": 6319584,
    "parentId": 3474575,
    "country": "BR",
    "name": "Novo Alegre",
    "fullName": null,
    "lat": -12.87311,
    "lng": -46.56936,
    "tz": "America/Araguaina"
  },
  {
    "id": 6319585,
    "parentId": 3474575,
    "country": "BR",
    "name": "Novo Jardim",
    "fullName": null,
    "lat": -11.75148,
    "lng": -46.54138,
    "tz": "America/Araguaina"
  },
  {
    "id": 6319586,
    "parentId": 3474575,
    "country": "BR",
    "name": "Oliveira de Fátima",
    "fullName": null,
    "lat": -10.67053,
    "lng": -48.90783,
    "tz": "America/Araguaina"
  },
  {
    "id": 6319626,
    "parentId": 3474575,
    "country": "BR",
    "name": "Palmas",
    "fullName": null,
    "lat": -10.11592,
    "lng": -48.0777,
    "tz": "America/Araguaina"
  },
  {
    "id": 6319587,
    "parentId": 3474575,
    "country": "BR",
    "name": "Palmeirante",
    "fullName": null,
    "lat": -7.86937,
    "lng": -48.17585,
    "tz": "America/Araguaina"
  },
  {
    "id": 6319578,
    "parentId": 3474575,
    "country": "BR",
    "name": "Palmeiras do Tocantins",
    "fullName": null,
    "lat": -6.61304,
    "lng": -47.66259,
    "tz": "America/Araguaina"
  },
  {
    "id": 6319588,
    "parentId": 3474575,
    "country": "BR",
    "name": "Palmeirópolis",
    "fullName": null,
    "lat": -13.06026,
    "lng": -48.38866,
    "tz": "America/Araguaina"
  },
  {
    "id": 6319589,
    "parentId": 3474575,
    "country": "BR",
    "name": "Paraíso do Tocantins",
    "fullName": null,
    "lat": -10.23212,
    "lng": -48.88032,
    "tz": "America/Araguaina"
  },
  {
    "id": 6319590,
    "parentId": 3474575,
    "country": "BR",
    "name": "Paranã",
    "fullName": null,
    "lat": -12.73875,
    "lng": -47.94338,
    "tz": "America/Araguaina"
  },
  {
    "id": 6319002,
    "parentId": 3474575,
    "country": "BR",
    "name": "Pau d'Arco",
    "fullName": null,
    "lat": -7.55877,
    "lng": -48.93697,
    "tz": "America/Araguaina"
  },
  {
    "id": 6319591,
    "parentId": 3474575,
    "country": "BR",
    "name": "Pedro Afonso",
    "fullName": null,
    "lat": -9.20623,
    "lng": -47.97805,
    "tz": "America/Araguaina"
  },
  {
    "id": 6319592,
    "parentId": 3474575,
    "country": "BR",
    "name": "Peixe",
    "fullName": null,
    "lat": -11.99612,
    "lng": -48.53284,
    "tz": "America/Araguaina"
  },
  {
    "id": 6319593,
    "parentId": 3474575,
    "country": "BR",
    "name": "Pequizeiro",
    "fullName": null,
    "lat": -8.40977,
    "lng": -48.94148,
    "tz": "America/Araguaina"
  },
  {
    "id": 6319595,
    "parentId": 3474575,
    "country": "BR",
    "name": "Pindorama do Tocantins",
    "fullName": null,
    "lat": -11.13233,
    "lng": -47.5617,
    "tz": "America/Araguaina"
  },
  {
    "id": 6319596,
    "parentId": 3474575,
    "country": "BR",
    "name": "Piraquê",
    "fullName": null,
    "lat": -6.68862,
    "lng": -48.23711,
    "tz": "America/Araguaina"
  },
  {
    "id": 6319597,
    "parentId": 3474575,
    "country": "BR",
    "name": "Pium",
    "fullName": null,
    "lat": -10.07399,
    "lng": -49.69857,
    "tz": "America/Araguaina"
  },
  {
    "id": 6319598,
    "parentId": 3474575,
    "country": "BR",
    "name": "Ponte Alta do Bom Jesus",
    "fullName": null,
    "lat": -12.09696,
    "lng": -46.62629,
    "tz": "America/Araguaina"
  },
  {
    "id": 6319599,
    "parentId": 3474575,
    "country": "BR",
    "name": "Ponte Alta do Tocantins",
    "fullName": null,
    "lat": -10.78604,
    "lng": -47.1813,
    "tz": "America/Araguaina"
  },
  {
    "id": 6319600,
    "parentId": 3474575,
    "country": "BR",
    "name": "Porto Alegre do Tocantins",
    "fullName": null,
    "lat": -11.53239,
    "lng": -47.03453,
    "tz": "America/Araguaina"
  },
  {
    "id": 6319601,
    "parentId": 3474575,
    "country": "BR",
    "name": "Porto Nacional",
    "fullName": null,
    "lat": -10.52826,
    "lng": -48.47443,
    "tz": "America/Araguaina"
  },
  {
    "id": 6319602,
    "parentId": 3474575,
    "country": "BR",
    "name": "Praia Norte",
    "fullName": null,
    "lat": -5.46958,
    "lng": -47.79732,
    "tz": "America/Araguaina"
  },
  {
    "id": 6324281,
    "parentId": 3474575,
    "country": "BR",
    "name": "Presidente Kennedy",
    "fullName": null,
    "lat": -8.48264,
    "lng": -48.44075,
    "tz": "America/Araguaina"
  },
  {
    "id": 6319603,
    "parentId": 3474575,
    "country": "BR",
    "name": "Pugmil",
    "fullName": null,
    "lat": -10.42875,
    "lng": -48.85558,
    "tz": "America/Araguaina"
  },
  {
    "id": 6319604,
    "parentId": 3474575,
    "country": "BR",
    "name": "Recursolândia",
    "fullName": null,
    "lat": -8.66852,
    "lng": -47.07333,
    "tz": "America/Araguaina"
  },
  {
    "id": 6319605,
    "parentId": 3474575,
    "country": "BR",
    "name": "Riachinho",
    "fullName": null,
    "lat": -6.46034,
    "lng": -48.13618,
    "tz": "America/Araguaina"
  },
  {
    "id": 6319606,
    "parentId": 3474575,
    "country": "BR",
    "name": "Rio da Conceição",
    "fullName": null,
    "lat": -11.36815,
    "lng": -46.77445,
    "tz": "America/Araguaina"
  },
  {
    "id": 6319607,
    "parentId": 3474575,
    "country": "BR",
    "name": "Rio dos Bois",
    "fullName": null,
    "lat": -9.20901,
    "lng": -48.44308,
    "tz": "America/Araguaina"
  },
  {
    "id": 6319608,
    "parentId": 3474575,
    "country": "BR",
    "name": "Rio Sono",
    "fullName": null,
    "lat": -9.64479,
    "lng": -47.38387,
    "tz": "America/Araguaina"
  },
  {
    "id": 6319609,
    "parentId": 3474575,
    "country": "BR",
    "name": "Sampaio",
    "fullName": null,
    "lat": -5.36587,
    "lng": -47.91898,
    "tz": "America/Araguaina"
  },
  {
    "id": 6319610,
    "parentId": 3474575,
    "country": "BR",
    "name": "Sandolândia",
    "fullName": null,
    "lat": -12.40743,
    "lng": -49.85491,
    "tz": "America/Araguaina"
  },
  {
    "id": 6319003,
    "parentId": 3474575,
    "country": "BR",
    "name": "Santa Fé do Araguaia",
    "fullName": null,
    "lat": -7.10746,
    "lng": -48.9558,
    "tz": "America/Araguaina"
  },
  {
    "id": 6319004,
    "parentId": 3474575,
    "country": "BR",
    "name": "Santa Maria do Tocantins",
    "fullName": null,
    "lat": -8.81566,
    "lng": -47.85337,
    "tz": "America/Araguaina"
  },
  {
    "id": 6319611,
    "parentId": 3474575,
    "country": "BR",
    "name": "Santa Rita do Tocantins",
    "fullName": null,
    "lat": -10.9736,
    "lng": -49.37112,
    "tz": "America/Araguaina"
  },
  {
    "id": 6319612,
    "parentId": 3474575,
    "country": "BR",
    "name": "Santa Rosa do Tocantins",
    "fullName": null,
    "lat": -11.38278,
    "lng": -48.07295,
    "tz": "America/Araguaina"
  },
  {
    "id": 6319613,
    "parentId": 3474575,
    "country": "BR",
    "name": "Santa Tereza do Tocantins",
    "fullName": null,
    "lat": -10.2998,
    "lng": -47.72597,
    "tz": "America/Araguaina"
  },
  {
    "id": 6319614,
    "parentId": 3474575,
    "country": "BR",
    "name": "Santa Terezinha do Tocantins",
    "fullName": null,
    "lat": -6.4804,
    "lng": -47.70055,
    "tz": "America/Araguaina"
  },
  {
    "id": 6319615,
    "parentId": 3474575,
    "country": "BR",
    "name": "São Bento do Tocantins",
    "fullName": null,
    "lat": -5.95028,
    "lng": -47.9963,
    "tz": "America/Araguaina"
  },
  {
    "id": 6319616,
    "parentId": 3474575,
    "country": "BR",
    "name": "São Félix do Tocantins",
    "fullName": null,
    "lat": -10.06488,
    "lng": -46.72778,
    "tz": "America/Araguaina"
  },
  {
    "id": 6319617,
    "parentId": 3474575,
    "country": "BR",
    "name": "São Miguel do Tocantins",
    "fullName": null,
    "lat": -5.53458,
    "lng": -47.6082,
    "tz": "America/Araguaina"
  },
  {
    "id": 6319618,
    "parentId": 3474575,
    "country": "BR",
    "name": "São Salvador do Tocantins",
    "fullName": null,
    "lat": -12.54945,
    "lng": -48.40184,
    "tz": "America/Araguaina"
  },
  {
    "id": 6319619,
    "parentId": 3474575,
    "country": "BR",
    "name": "São Sebastião do Tocantins",
    "fullName": null,
    "lat": -5.25181,
    "lng": -48.34602,
    "tz": "America/Araguaina"
  },
  {
    "id": 6324191,
    "parentId": 3474575,
    "country": "BR",
    "name": "São Valério",
    "fullName": null,
    "lat": -11.86029,
    "lng": -48.13995,
    "tz": "America/Araguaina"
  },
  {
    "id": 6319620,
    "parentId": 3474575,
    "country": "BR",
    "name": "Silvanópolis",
    "fullName": null,
    "lat": -11.11343,
    "lng": -48.22341,
    "tz": "America/Araguaina"
  },
  {
    "id": 6319621,
    "parentId": 3474575,
    "country": "BR",
    "name": "Sítio Novo do Tocantins",
    "fullName": null,
    "lat": -5.6299,
    "lng": -47.68644,
    "tz": "America/Araguaina"
  },
  {
    "id": 6319622,
    "parentId": 3474575,
    "country": "BR",
    "name": "Sucupira",
    "fullName": null,
    "lat": -12.019,
    "lng": -48.84477,
    "tz": "America/Araguaina"
  },
  {
    "id": 6319623,
    "parentId": 3474575,
    "country": "BR",
    "name": "Taguatinga",
    "fullName": null,
    "lat": -12.38568,
    "lng": -46.5711,
    "tz": "America/Araguaina"
  },
  {
    "id": 6319624,
    "parentId": 3474575,
    "country": "BR",
    "name": "Taipas do Tocantins",
    "fullName": null,
    "lat": -12.15677,
    "lng": -47.03342,
    "tz": "America/Araguaina"
  },
  {
    "id": 6319625,
    "parentId": 3474575,
    "country": "BR",
    "name": "Talismã",
    "fullName": null,
    "lat": -12.67795,
    "lng": -49.07863,
    "tz": "America/Araguaina"
  },
  {
    "id": 6319627,
    "parentId": 3474575,
    "country": "BR",
    "name": "Tocantínia",
    "fullName": null,
    "lat": -9.5644,
    "lng": -48.18709,
    "tz": "America/Araguaina"
  },
  {
    "id": 6319628,
    "parentId": 3474575,
    "country": "BR",
    "name": "Tocantinópolis",
    "fullName": null,
    "lat": -6.26254,
    "lng": -47.55767,
    "tz": "America/Araguaina"
  },
  {
    "id": 6319629,
    "parentId": 3474575,
    "country": "BR",
    "name": "Tupirama",
    "fullName": null,
    "lat": -8.9192,
    "lng": -48.27661,
    "tz": "America/Araguaina"
  },
  {
    "id": 6324282,
    "parentId": 3474575,
    "country": "BR",
    "name": "Tupiratins",
    "fullName": null,
    "lat": -8.38578,
    "lng": -48.22299,
    "tz": "America/Araguaina"
  },
  {
    "id": 6319630,
    "parentId": 3474575,
    "country": "BR",
    "name": "Wanderlândia",
    "fullName": null,
    "lat": -6.79803,
    "lng": -48.00415,
    "tz": "America/Araguaina"
  },
  {
    "id": 6319631,
    "parentId": 3474575,
    "country": "BR",
    "name": "Xambioá",
    "fullName": null,
    "lat": -6.59413,
    "lng": -48.43142,
    "tz": "America/Araguaina"
  }
]