[
  {
    "id": 3922451,
    "parentId": 3920177,
    "country": "BO",
    "name": "Camargo",
    "fullName": null,
    "lat": -20.64064,
    "lng": -65.20893,
    "tz": "America/La_Paz"
  },
  {
    "id": 3910094,
    "parentId": 3920177,
    "country": "BO",
    "name": "Monteagudo",
    "fullName": null,
    "lat": -19.79998,
    "lng": -63.95617,
    "tz": "America/La_Paz"
  },
  {
    "id": 3909038,
    "parentId": 3920177,
    "country": "BO",
    "name": "Padilla",
    "fullName": null,
    "lat": -19.30878,
    "lng": -64.30273,
    "tz": "America/La_Paz"
  },
  {
    "id": 3903987,
    "parentId": 3920177,
    "country": "BO",
    "name": "Sucre",
    "fullName": null,
    "lat": -19.03332,
    "lng": -65.26274,
    "tz": "America/La_Paz"
  },
  {
    "id": 3903391,
    "parentId": 3920177,
    "country": "BO",
    "name": "Tarabuco",
    "fullName": null,
    "lat": -19.18168,
    "lng": -64.91517,
    "tz": "America/La_Paz"
  }
]
