[
  {
    "id": 4602643,
    "parentId": 4662168,
    "country": "US",
    "name": "Anderson County",
    "fullName": null,
    "lat": 36.11844,
    "lng": -84.19846,
    "tz": "America/New_York"
  },
  {
    "id": 4829092,
    "parentId": 4662168,
    "country": "US",
    "name": "Bedford County",
    "fullName": null,
    "lat": 35.5138,
    "lng": -86.45889,
    "tz": "America/Chicago"
  },
  {
    "id": 4605583,
    "parentId": 4662168,
    "country": "US",
    "name": "Benton County",
    "fullName": null,
    "lat": 36.06978,
    "lng": -88.06827,
    "tz": "America/Chicago"
  },
  {
    "id": 4607097,
    "parentId": 4662168,
    "country": "US",
    "name": "Bledsoe County",
    "fullName": null,
    "lat": 35.59642,
    "lng": -85.20516,
    "tz": "America/Chicago"
  },
  {
    "id": 4607192,
    "parentId": 4662168,
    "country": "US",
    "name": "Blount County",
    "fullName": null,
    "lat": 35.68724,
    "lng": -83.92553,
    "tz": "America/New_York"
  },
  {
    "id": 4608185,
    "parentId": 4662168,
    "country": "US",
    "name": "Bradley County",
    "fullName": null,
    "lat": 35.15411,
    "lng": -84.8596,
    "tz": "America/New_York"
  },
  {
    "id": 4050506,
    "parentId": 4662168,
    "country": "US",
    "name": "Campbell County",
    "fullName": null,
    "lat": 36.40351,
    "lng": -84.14938,
    "tz": "America/New_York"
  },
  {
    "id": 4611179,
    "parentId": 4662168,
    "country": "US",
    "name": "Cannon County",
    "fullName": null,
    "lat": 35.80868,
    "lng": -86.06174,
    "tz": "America/Chicago"
  },
  {
    "id": 4611490,
    "parentId": 4662168,
    "country": "US",
    "name": "Carroll County",
    "fullName": null,
    "lat": 35.97317,
    "lng": -88.45026,
    "tz": "America/Chicago"
  },
  {
    "id": 4611599,
    "parentId": 4662168,
    "country": "US",
    "name": "Carter County",
    "fullName": null,
    "lat": 36.29272,
    "lng": -82.12743,
    "tz": "America/New_York"
  },
  {
    "id": 4612891,
    "parentId": 4662168,
    "country": "US",
    "name": "Cheatham County",
    "fullName": null,
    "lat": 36.26117,
    "lng": -87.08678,
    "tz": "America/Chicago"
  },
  {
    "id": 4613057,
    "parentId": 4662168,
    "country": "US",
    "name": "Chester County",
    "fullName": null,
    "lat": 35.42175,
    "lng": -88.61346,
    "tz": "America/Chicago"
  },
  {
    "id": 4613750,
    "parentId": 4662168,
    "country": "US",
    "name": "Claiborne County",
    "fullName": null,
    "lat": 36.48585,
    "lng": -83.66042,
    "tz": "America/New_York"
  },
  {
    "id": 4613912,
    "parentId": 4662168,
    "country": "US",
    "name": "Clay County",
    "fullName": null,
    "lat": 36.55116,
    "lng": -85.54386,
    "tz": "America/Chicago"
  },
  {
    "id": 4614441,
    "parentId": 4662168,
    "country": "US",
    "name": "Cocke County",
    "fullName": null,
    "lat": 35.92542,
    "lng": -83.12116,
    "tz": "America/New_York"
  },
  {
    "id": 4614466,
    "parentId": 4662168,
    "country": "US",
    "name": "Coffee County",
    "fullName": null,
    "lat": 35.49062,
    "lng": -86.07476,
    "tz": "America/Chicago"
  },
  {
    "id": 4616263,
    "parentId": 4662168,
    "country": "US",
    "name": "Crockett County",
    "fullName": null,
    "lat": 35.81354,
    "lng": -89.13953,
    "tz": "America/Chicago"
  },
  {
    "id": 4616678,
    "parentId": 4662168,
    "country": "US",
    "name": "Cumberland County",
    "fullName": null,
    "lat": 35.95039,
    "lng": -84.99835,
    "tz": "America/Chicago"
  },
  {
    "id": 4617305,
    "parentId": 4662168,
    "country": "US",
    "name": "Davidson County",
    "fullName": null,
    "lat": 36.17069,
    "lng": -86.77753,
    "tz": "America/Chicago"
  },
  {
    "id": 4617654,
    "parentId": 4662168,
    "country": "US",
    "name": "Decatur County",
    "fullName": null,
    "lat": 35.60302,
    "lng": -88.10877,
    "tz": "America/Chicago"
  },
  {
    "id": 4617573,
    "parentId": 4662168,
    "country": "US",
    "name": "DeKalb County",
    "fullName": null,
    "lat": 35.97986,
    "lng": -85.83275,
    "tz": "America/Chicago"
  },
  {
    "id": 4618068,
    "parentId": 4662168,
    "country": "US",
    "name": "Dickson County",
    "fullName": null,
    "lat": 36.14905,
    "lng": -87.35666,
    "tz": "America/Chicago"
  },
  {
    "id": 4619773,
    "parentId": 4662168,
    "country": "US",
    "name": "Dyer County",
    "fullName": null,
    "lat": 36.05906,
    "lng": -89.41377,
    "tz": "America/Chicago"
  },
  {
    "id": 4621908,
    "parentId": 4662168,
    "country": "US",
    "name": "Fayette County",
    "fullName": null,
    "lat": 35.19708,
    "lng": -89.41437,
    "tz": "America/Chicago"
  },
  {
    "id": 4621984,
    "parentId": 4662168,
    "country": "US",
    "name": "Fentress County",
    "fullName": null,
    "lat": 36.38049,
    "lng": -84.93246,
    "tz": "America/Chicago"
  },
  {
    "id": 4623574,
    "parentId": 4662168,
    "country": "US",
    "name": "Franklin County",
    "fullName": null,
    "lat": 35.15496,
    "lng": -86.09218,
    "tz": "America/Chicago"
  },
  {
    "id": 4624666,
    "parentId": 4662168,
    "country": "US",
    "name": "Gibson County",
    "fullName": null,
    "lat": 35.99661,
    "lng": -88.93262,
    "tz": "America/Chicago"
  },
  {
    "id": 4624737,
    "parentId": 4662168,
    "country": "US",
    "name": "Giles County",
    "fullName": null,
    "lat": 35.20215,
    "lng": -87.03478,
    "tz": "America/Chicago"
  },
  {
    "id": 4625620,
    "parentId": 4662168,
    "country": "US",
    "name": "Grainger County",
    "fullName": null,
    "lat": 36.27625,
    "lng": -83.50962,
    "tz": "America/New_York"
  },
  {
    "id": 4626324,
    "parentId": 4662168,
    "country": "US",
    "name": "Greene County",
    "fullName": null,
    "lat": 36.17536,
    "lng": -82.84582,
    "tz": "America/New_York"
  },
  {
    "id": 4626743,
    "parentId": 4662168,
    "country": "US",
    "name": "Grundy County",
    "fullName": null,
    "lat": 35.38837,
    "lng": -85.72258,
    "tz": "America/Chicago"
  },
  {
    "id": 4627251,
    "parentId": 4662168,
    "country": "US",
    "name": "Hamblen County",
    "fullName": null,
    "lat": 36.21715,
    "lng": -83.26666,
    "tz": "America/New_York"
  },
  {
    "id": 4627306,
    "parentId": 4662168,
    "country": "US",
    "name": "Hamilton County",
    "fullName": null,
    "lat": 35.18086,
    "lng": -85.16479,
    "tz": "America/New_York"
  },
  {
    "id": 4627427,
    "parentId": 4662168,
    "country": "US",
    "name": "Hancock County",
    "fullName": null,
    "lat": 36.52365,
    "lng": -83.22183,
    "tz": "America/New_York"
  },
  {
    "id": 4627590,
    "parentId": 4662168,
    "country": "US",
    "name": "Hardeman County",
    "fullName": null,
    "lat": 35.20687,
    "lng": -88.99308,
    "tz": "America/Chicago"
  },
  {
    "id": 4627625,
    "parentId": 4662168,
    "country": "US",
    "name": "Hardin County",
    "fullName": null,
    "lat": 35.19868,
    "lng": -88.18448,
    "tz": "America/Chicago"
  },
  {
    "id": 4628325,
    "parentId": 4662168,
    "country": "US",
    "name": "Hawkins County",
    "fullName": null,
    "lat": 36.44117,
    "lng": -82.94468,
    "tz": "America/New_York"
  },
  {
    "id": 4628456,
    "parentId": 4662168,
    "country": "US",
    "name": "Haywood County",
    "fullName": null,
    "lat": 35.58322,
    "lng": -89.28384,
    "tz": "America/Chicago"
  },
  {
    "id": 4628715,
    "parentId": 4662168,
    "country": "US",
    "name": "Henderson County",
    "fullName": null,
    "lat": 35.65426,
    "lng": -88.38799,
    "tz": "America/Chicago"
  },
  {
    "id": 4628829,
    "parentId": 4662168,
    "country": "US",
    "name": "Henry County",
    "fullName": null,
    "lat": 36.33183,
    "lng": -88.30122,
    "tz": "America/Chicago"
  },
  {
    "id": 4629047,
    "parentId": 4662168,
    "country": "US",
    "name": "Hickman County",
    "fullName": null,
    "lat": 35.80325,
    "lng": -87.47331,
    "tz": "America/Chicago"
  },
  {
    "id": 4630950,
    "parentId": 4662168,
    "country": "US",
    "name": "Houston County",
    "fullName": null,
    "lat": 36.28597,
    "lng": -87.71704,
    "tz": "America/Chicago"
  },
  {
    "id": 4631309,
    "parentId": 4662168,
    "country": "US",
    "name": "Humphreys County",
    "fullName": null,
    "lat": 36.04082,
    "lng": -87.77563,
    "tz": "America/Chicago"
  },
  {
    "id": 4632660,
    "parentId": 4662168,
    "country": "US",
    "name": "Jackson County",
    "fullName": null,
    "lat": 36.35921,
    "lng": -85.67315,
    "tz": "America/Chicago"
  },
  {
    "id": 4632934,
    "parentId": 4662168,
    "country": "US",
    "name": "Jefferson County",
    "fullName": null,
    "lat": 36.05099,
    "lng": -83.44631,
    "tz": "America/New_York"
  },
  {
    "id": 4633430,
    "parentId": 4662168,
    "country": "US",
    "name": "Johnson County",
    "fullName": null,
    "lat": 36.45494,
    "lng": -81.85175,
    "tz": "America/New_York"
  },
  {
    "id": 4634931,
    "parentId": 4662168,
    "country": "US",
    "name": "Knox County",
    "fullName": null,
    "lat": 35.99322,
    "lng": -83.93709,
    "tz": "America/New_York"
  },
  {
    "id": 4635138,
    "parentId": 4662168,
    "country": "US",
    "name": "Lake County",
    "fullName": null,
    "lat": 36.33538,
    "lng": -89.49347,
    "tz": "America/Chicago"
  },
  {
    "id": 4635615,
    "parentId": 4662168,
    "country": "US",
    "name": "Lauderdale County",
    "fullName": null,
    "lat": 35.76101,
    "lng": -89.63144,
    "tz": "America/Chicago"
  },
  {
    "id": 4635830,
    "parentId": 4662168,
    "country": "US",
    "name": "Lawrence County",
    "fullName": null,
    "lat": 35.21727,
    "lng": -87.39559,
    "tz": "America/Chicago"
  },
  {
    "id": 4636403,
    "parentId": 4662168,
    "country": "US",
    "name": "Lewis County",
    "fullName": null,
    "lat": 35.52728,
    "lng": -87.4931,
    "tz": "America/Chicago"
  },
  {
    "id": 4636884,
    "parentId": 4662168,
    "country": "US",
    "name": "Lincoln County",
    "fullName": null,
    "lat": 35.14052,
    "lng": -86.58894,
    "tz": "America/Chicago"
  },
  {
    "id": 4638283,
    "parentId": 4662168,
    "country": "US",
    "name": "Loudon County",
    "fullName": null,
    "lat": 35.73478,
    "lng": -84.31187,
    "tz": "America/New_York"
  },
  {
    "id": 4638991,
    "parentId": 4662168,
    "country": "US",
    "name": "Macon County",
    "fullName": null,
    "lat": 36.53203,
    "lng": -86.00727,
    "tz": "America/Chicago"
  },
  {
    "id": 4639045,
    "parentId": 4662168,
    "country": "US",
    "name": "Madison County",
    "fullName": null,
    "lat": 35.60814,
    "lng": -88.83847,
    "tz": "America/Chicago"
  },
  {
    "id": 4639514,
    "parentId": 4662168,
    "country": "US",
    "name": "Marion County",
    "fullName": null,
    "lat": 35.12935,
    "lng": -85.62203,
    "tz": "America/Chicago"
  },
  {
    "id": 4639630,
    "parentId": 4662168,
    "country": "US",
    "name": "Marshall County",
    "fullName": null,
    "lat": 35.46886,
    "lng": -86.76502,
    "tz": "America/Chicago"
  },
  {
    "id": 4640041,
    "parentId": 4662168,
    "country": "US",
    "name": "Maury County",
    "fullName": null,
    "lat": 35.61694,
    "lng": -87.07701,
    "tz": "America/Chicago"
  },
  {
    "id": 4640873,
    "parentId": 4662168,
    "country": "US",
    "name": "McMinn County",
    "fullName": null,
    "lat": 35.42475,
    "lng": -84.61747,
    "tz": "America/New_York"
  },
  {
    "id": 4640921,
    "parentId": 4662168,
    "country": "US",
    "name": "McNairy County",
    "fullName": null,
    "lat": 35.17545,
    "lng": -88.56364,
    "tz": "America/Chicago"
  },
  {
    "id": 4641148,
    "parentId": 4662168,
    "country": "US",
    "name": "Meigs County",
    "fullName": null,
    "lat": 35.51283,
    "lng": -84.81339,
    "tz": "America/New_York"
  },
  {
    "id": 4642365,
    "parentId": 4662168,
    "country": "US",
    "name": "Monroe County",
    "fullName": null,
    "lat": 35.44265,
    "lng": -84.25279,
    "tz": "America/New_York"
  },
  {
    "id": 4642445,
    "parentId": 4662168,
    "country": "US",
    "name": "Montgomery County",
    "fullName": null,
    "lat": 36.49686,
    "lng": -87.38289,
    "tz": "America/Chicago"
  },
  {
    "id": 4642600,
    "parentId": 4662168,
    "country": "US",
    "name": "Moore County",
    "fullName": null,
    "lat": 35.28462,
    "lng": -86.35877,
    "tz": "America/Chicago"
  },
  {
    "id": 4642752,
    "parentId": 4662168,
    "country": "US",
    "name": "Morgan County",
    "fullName": null,
    "lat": 36.13502,
    "lng": -84.6492,
    "tz": "America/New_York"
  },
  {
    "id": 4646779,
    "parentId": 4662168,
    "country": "US",
    "name": "Obion County",
    "fullName": null,
    "lat": 36.35825,
    "lng": -89.1488,
    "tz": "America/Chicago"
  },
  {
    "id": 4647552,
    "parentId": 4662168,
    "country": "US",
    "name": "Overton County",
    "fullName": null,
    "lat": 36.345,
    "lng": -85.28808,
    "tz": "America/Chicago"
  },
  {
    "id": 4648830,
    "parentId": 4662168,
    "country": "US",
    "name": "Perry County",
    "fullName": null,
    "lat": 35.64263,
    "lng": -87.85897,
    "tz": "America/Chicago"
  },
  {
    "id": 4649175,
    "parentId": 4662168,
    "country": "US",
    "name": "Pickett County",
    "fullName": null,
    "lat": 36.55841,
    "lng": -85.07499,
    "tz": "America/Chicago"
  },
  {
    "id": 4650495,
    "parentId": 4662168,
    "country": "US",
    "name": "Polk County",
    "fullName": null,
    "lat": 35.1199,
    "lng": -84.5233,
    "tz": "America/New_York"
  },
  {
    "id": 4651744,
    "parentId": 4662168,
    "country": "US",
    "name": "Putnam County",
    "fullName": null,
    "lat": 36.14083,
    "lng": -85.49519,
    "tz": "America/Chicago"
  },
  {
    "id": 4652809,
    "parentId": 4662168,
    "country": "US",
    "name": "Rhea County",
    "fullName": null,
    "lat": 35.60871,
    "lng": -84.9244,
    "tz": "America/New_York"
  },
  {
    "id": 4653455,
    "parentId": 4662168,
    "country": "US",
    "name": "Roane County",
    "fullName": null,
    "lat": 35.84786,
    "lng": -84.52324,
    "tz": "America/New_York"
  },
  {
    "id": 4653638,
    "parentId": 4662168,
    "country": "US",
    "name": "Robertson County",
    "fullName": null,
    "lat": 36.52546,
    "lng": -86.87057,
    "tz": "America/Chicago"
  },
  {
    "id": 4654962,
    "parentId": 4662168,
    "country": "US",
    "name": "Rutherford County",
    "fullName": null,
    "lat": 35.8427,
    "lng": -86.41674,
    "tz": "America/Chicago"
  },
  {
    "id": 4656214,
    "parentId": 4662168,
    "country": "US",
    "name": "Scott County",
    "fullName": null,
    "lat": 36.42854,
    "lng": -84.50352,
    "tz": "America/New_York"
  },
  {
    "id": 4656461,
    "parentId": 4662168,
    "country": "US",
    "name": "Sequatchie County",
    "fullName": null,
    "lat": 35.37115,
    "lng": -85.41059,
    "tz": "America/Chicago"
  },
  {
    "id": 4656568,
    "parentId": 4662168,
    "country": "US",
    "name": "Sevier County",
    "fullName": null,
    "lat": 35.78466,
    "lng": -83.52418,
    "tz": "America/New_York"
  },
  {
    "id": 4657046,
    "parentId": 4662168,
    "country": "US",
    "name": "Shelby County",
    "fullName": null,
    "lat": 35.184,
    "lng": -89.8956,
    "tz": "America/Chicago"
  },
  {
    "id": 4658423,
    "parentId": 4662168,
    "country": "US",
    "name": "Smith County",
    "fullName": null,
    "lat": 36.25053,
    "lng": -85.95671,
    "tz": "America/Chicago"
  },
  {
    "id": 4660056,
    "parentId": 4662168,
    "country": "US",
    "name": "Stewart County",
    "fullName": null,
    "lat": 36.5011,
    "lng": -87.83846,
    "tz": "America/Chicago"
  },
  {
    "id": 4660813,
    "parentId": 4662168,
    "country": "US",
    "name": "Sullivan County",
    "fullName": null,
    "lat": 36.51292,
    "lng": -82.30414,
    "tz": "America/New_York"
  },
  {
    "id": 4661017,
    "parentId": 4662168,
    "country": "US",
    "name": "Sumner County",
    "fullName": null,
    "lat": 36.46941,
    "lng": -86.46036,
    "tz": "America/Chicago"
  },
  {
    "id": 4662784,
    "parentId": 4662168,
    "country": "US",
    "name": "Tipton County",
    "fullName": null,
    "lat": 35.49687,
    "lng": -89.75924,
    "tz": "America/Chicago"
  },
  {
    "id": 4663355,
    "parentId": 4662168,
    "country": "US",
    "name": "Trousdale County",
    "fullName": null,
    "lat": 36.39204,
    "lng": -86.15675,
    "tz": "America/Chicago"
  },
  {
    "id": 4663934,
    "parentId": 4662168,
    "country": "US",
    "name": "Unicoi County",
    "fullName": null,
    "lat": 36.11082,
    "lng": -82.43224,
    "tz": "America/New_York"
  },
  {
    "id": 4664043,
    "parentId": 4662168,
    "country": "US",
    "name": "Union County",
    "fullName": null,
    "lat": 36.28787,
    "lng": -83.83751,
    "tz": "America/New_York"
  },
  {
    "id": 4664489,
    "parentId": 4662168,
    "country": "US",
    "name": "Van Buren County",
    "fullName": null,
    "lat": 35.69598,
    "lng": -85.45261,
    "tz": "America/Chicago"
  },
  {
    "id": 4665884,
    "parentId": 4662168,
    "country": "US",
    "name": "Warren County",
    "fullName": null,
    "lat": 35.67868,
    "lng": -85.7785,
    "tz": "America/Chicago"
  },
  {
    "id": 4665975,
    "parentId": 4662168,
    "country": "US",
    "name": "Washington County",
    "fullName": null,
    "lat": 36.2933,
    "lng": -82.49743,
    "tz": "America/New_York"
  },
  {
    "id": 4666233,
    "parentId": 4662168,
    "country": "US",
    "name": "Wayne County",
    "fullName": null,
    "lat": 35.23992,
    "lng": -87.78801,
    "tz": "America/Chicago"
  },
  {
    "id": 4666265,
    "parentId": 4662168,
    "country": "US",
    "name": "Weakley County",
    "fullName": null,
    "lat": 36.2983,
    "lng": -88.71774,
    "tz": "America/Chicago"
  },
  {
    "id": 4667226,
    "parentId": 4662168,
    "country": "US",
    "name": "White County",
    "fullName": null,
    "lat": 35.92635,
    "lng": -85.45518,
    "tz": "America/Chicago"
  },
  {
    "id": 4668054,
    "parentId": 4662168,
    "country": "US",
    "name": "Williamson County",
    "fullName": null,
    "lat": 35.89378,
    "lng": -86.8986,
    "tz": "America/Chicago"
  },
  {
    "id": 4668271,
    "parentId": 4662168,
    "country": "US",
    "name": "Wilson County",
    "fullName": null,
    "lat": 36.15486,
    "lng": -86.29763,
    "tz": "America/Chicago"
  }
]